{"type":"FeatureCollection","features":[{"type":"Feature","geometry":{"type":"Point","coordinates":[71.9,27.54]},"properties":{"name":"Bhadla Solar Park","tech":"solar","status":"operating","capacityMW":2245,"energyMWh":null,"country":"India","owner":null,"note":"A blue lake of panels in the Thar desert — among the cheapest electricity ever contracted."}},{"type":"Feature","geometry":{"type":"Point","coordinates":[77.28,14.1]},"properties":{"name":"Pavagada Solar Park (Shakti Sthala)","tech":"solar","status":"operating","capacityMW":2050,"energyMWh":null,"country":"India","owner":null,"note":null}},{"type":"Feature","geometry":{"type":"Point","coordinates":[69.7,23.9]},"properties":{"name":"Khavda Renewable Energy Park","tech":"solar","status":"construction","capacityMW":30000,"energyMWh":null,"country":"India","owner":"Adani Green + others","note":"~30 GW of solar + wind planned across the Rann of Kutch; several GW already online."}},{"type":"Feature","geometry":{"type":"Point","coordinates":[78.39,9.35]},"properties":{"name":"Kamuthi Solar Power Project","tech":"solar","status":"operating","capacityMW":648,"energyMWh":null,"country":"India","owner":"Adani Green","note":null}},{"type":"Feature","geometry":{"type":"Point","coordinates":[81.5,24.5]},"properties":{"name":"Rewa Ultra Mega Solar","tech":"solar","status":"operating","capacityMW":750,"energyMWh":null,"country":"India","owner":null,"note":null}},{"type":"Feature","geometry":{"type":"Point","coordinates":[32.74,24.46]},"properties":{"name":"Benban Solar Park","tech":"solar","status":"operating","capacityMW":1650,"energyMWh":null,"country":"Egypt","owner":null,"note":"41 separate plants sharing one desert site near Aswan."}},{"type":"Feature","geometry":{"type":"Point","coordinates":[-6.86,30.99]},"properties":{"name":"Noor Ouarzazate Solar Complex","tech":"solar","status":"operating","capacityMW":580,"energyMWh":null,"country":"Morocco","owner":null,"note":"CSP towers + mirror fields with molten-salt storage at the gate of the Sahara."}},{"type":"Feature","geometry":{"type":"Point","coordinates":[23.07,-28.32]},"properties":{"name":"Redstone CSP","tech":"solar","status":"operating","capacityMW":100,"energyMWh":null,"country":"South Africa","owner":null,"note":"Concentrated solar with ~12 hours of thermal storage."}},{"type":"Feature","geometry":{"type":"Point","coordinates":[104.9,37.55]},"properties":{"name":"Tengger Desert Solar Park","tech":"solar","status":"operating","capacityMW":1547,"energyMWh":null,"country":"China","owner":null,"note":null}},{"type":"Feature","geometry":{"type":"Point","coordinates":[100.55,36.17]},"properties":{"name":"Longyangxia Hydro–Solar Park","tech":"solar","status":"operating","capacityMW":850,"energyMWh":null,"country":"China","owner":null,"note":"Paired with the Longyangxia dam, which smooths the solar output."}},{"type":"Feature","geometry":{"type":"Point","coordinates":[88,44.2]},"properties":{"name":"Urumqi Midong Solar Project","tech":"solar","status":"operating","capacityMW":3500,"energyMWh":null,"country":"China","owner":null,"note":"One of the largest single-site PV plants on Earth."}},{"type":"Feature","geometry":{"type":"Point","coordinates":[54.6,24]},"properties":{"name":"Al Dhafra Solar PV","tech":"solar","status":"operating","capacityMW":2000,"energyMWh":null,"country":"United Arab Emirates","owner":"Masdar / EDF / JinkoPower","note":null}},{"type":"Feature","geometry":{"type":"Point","coordinates":[55.34,24.46]},"properties":{"name":"Noor Abu Dhabi (Sweihan)","tech":"solar","status":"operating","capacityMW":1177,"energyMWh":null,"country":"United Arab Emirates","owner":null,"note":null}},{"type":"Feature","geometry":{"type":"Point","coordinates":[55.35,24.75]},"properties":{"name":"Mohammed bin Rashid Al Maktoum Solar Park","tech":"solar","status":"operating","capacityMW":2860,"energyMWh":null,"country":"United Arab Emirates","owner":null,"note":"Phased mega-park including a 700 MW CSP tower; still expanding."}},{"type":"Feature","geometry":{"type":"Point","coordinates":[55,24.6]},"properties":{"name":"Al Ajban Solar PV","tech":"solar","status":"construction","capacityMW":1500,"energyMWh":null,"country":"United Arab Emirates","owner":null,"note":null}},{"type":"Feature","geometry":{"type":"Point","coordinates":[45.5,25.7]},"properties":{"name":"Sudair Solar PV","tech":"solar","status":"operating","capacityMW":1500,"energyMWh":null,"country":"Saudi Arabia","owner":"ACWA Power + partners","note":null}},{"type":"Feature","geometry":{"type":"Point","coordinates":[39.53,20.63]},"properties":{"name":"Al Shuaibah Solar PV","tech":"solar","status":"operating","capacityMW":2060,"energyMWh":null,"country":"Saudi Arabia","owner":null,"note":null}},{"type":"Feature","geometry":{"type":"Point","coordinates":[33.52,37.72]},"properties":{"name":"Karapınar Solar Power Plant","tech":"solar","status":"operating","capacityMW":1350,"energyMWh":null,"country":"Turkey","owner":"Kalyon Enerji","note":null}},{"type":"Feature","geometry":{"type":"Point","coordinates":[-6.17,38.34]},"properties":{"name":"Núñez de Balboa","tech":"solar","status":"operating","capacityMW":500,"energyMWh":null,"country":"Spain","owner":"Iberdrola","note":null}},{"type":"Feature","geometry":{"type":"Point","coordinates":[-5.73,39.57]},"properties":{"name":"Francisco Pizarro","tech":"solar","status":"operating","capacityMW":590,"energyMWh":null,"country":"Spain","owner":"Iberdrola","note":null}},{"type":"Feature","geometry":{"type":"Point","coordinates":[12.42,51.16]},"properties":{"name":"Witznitz Energy Park","tech":"solar","status":"operating","capacityMW":650,"energyMWh":null,"country":"Germany","owner":null,"note":"Germany's largest solar park, built on a former coal mine."}},{"type":"Feature","geometry":{"type":"Point","coordinates":[-120.06,35.38]},"properties":{"name":"Topaz Solar Farm","tech":"solar","status":"operating","capacityMW":550,"energyMWh":null,"country":"United States","owner":null,"note":null}},{"type":"Feature","geometry":{"type":"Point","coordinates":[-118.39,34.82]},"properties":{"name":"Solar Star","tech":"solar","status":"operating","capacityMW":579,"energyMWh":null,"country":"United States","owner":null,"note":null}},{"type":"Feature","geometry":{"type":"Point","coordinates":[-115.4,33.82]},"properties":{"name":"Desert Sunlight Solar Farm","tech":"solar","status":"operating","capacityMW":550,"energyMWh":null,"country":"United States","owner":null,"note":null}},{"type":"Feature","geometry":{"type":"Point","coordinates":[-114.99,35.78]},"properties":{"name":"Copper Mountain Solar Facility","tech":"solar","status":"operating","capacityMW":802,"energyMWh":null,"country":"United States","owner":null,"note":null}},{"type":"Feature","geometry":{"type":"Point","coordinates":[-114.6,36.55]},"properties":{"name":"Gemini Solar + Storage","tech":"solar","status":"operating","capacityMW":690,"energyMWh":null,"country":"United States","owner":null,"note":"Includes a 380 MW / 1.4 GWh battery; powers Las Vegas evenings."}},{"type":"Feature","geometry":{"type":"Point","coordinates":[-86.72,41.07]},"properties":{"name":"Mammoth Solar","tech":"solar","status":"construction","capacityMW":1300,"energyMWh":null,"country":"United States","owner":null,"note":"Indiana farmland mega-project, coming online in phases."}},{"type":"Feature","geometry":{"type":"Point","coordinates":[-102.85,25.4]},"properties":{"name":"Villanueva Solar","tech":"solar","status":"operating","capacityMW":828,"energyMWh":null,"country":"Mexico","owner":"Enel Green Power","note":null}},{"type":"Feature","geometry":{"type":"Point","coordinates":[-43.31,-15.8]},"properties":{"name":"Janaúba Solar Complex","tech":"solar","status":"operating","capacityMW":1000,"energyMWh":null,"country":"Brazil","owner":null,"note":null}},{"type":"Feature","geometry":{"type":"Point","coordinates":[-66.8,-23.9]},"properties":{"name":"Cauchari Solar Park","tech":"solar","status":"operating","capacityMW":300,"energyMWh":null,"country":"Argentina","owner":null,"note":"Built at ~4,000 m altitude in the Andes on the Puna plateau."}},{"type":"Feature","geometry":{"type":"Point","coordinates":[-69.66,-22.34]},"properties":{"name":"CEME1 Solar","tech":"solar","status":"operating","capacityMW":480,"energyMWh":null,"country":"Chile","owner":null,"note":"In the Atacama — the sunniest desert on Earth."}},{"type":"Feature","geometry":{"type":"Point","coordinates":[150.62,-26.75]},"properties":{"name":"Western Downs Green Power Hub","tech":"solar","status":"operating","capacityMW":400,"energyMWh":null,"country":"Australia","owner":null,"note":null}},{"type":"Feature","geometry":{"type":"Point","coordinates":[151.5,-30.65]},"properties":{"name":"New England Solar","tech":"solar","status":"operating","capacityMW":720,"energyMWh":null,"country":"Australia","owner":null,"note":null}},{"type":"Feature","geometry":{"type":"Point","coordinates":[71.77,29.39]},"properties":{"name":"Quaid-e-Azam Solar Park","tech":"solar","status":"operating","capacityMW":400,"energyMWh":null,"country":"Pakistan","owner":null,"note":null}},{"type":"Feature","geometry":{"type":"Point","coordinates":[95.78,40.52]},"properties":{"name":"Jiuquan Wind Power Base","tech":"wind","status":"operating","capacityMW":8000,"energyMWh":null,"country":"China","owner":null,"note":"A wind megabase strung across the Gobi wind corridor; still expanding."}},{"type":"Feature","geometry":{"type":"Point","coordinates":[70.9,26.9]},"properties":{"name":"Jaisalmer Wind Park","tech":"wind","status":"operating","capacityMW":1600,"energyMWh":null,"country":"India","owner":"Suzlon","note":null}},{"type":"Feature","geometry":{"type":"Point","coordinates":[77.56,8.26]},"properties":{"name":"Muppandal Wind Farm","tech":"wind","status":"operating","capacityMW":1500,"energyMWh":null,"country":"India","owner":null,"note":"Thousands of turbines in the mountain pass near India's southern tip."}},{"type":"Feature","geometry":{"type":"Point","coordinates":[-118.3,35.03]},"properties":{"name":"Alta Wind Energy Center","tech":"wind","status":"operating","capacityMW":1548,"energyMWh":null,"country":"United States","owner":null,"note":"Tehachapi Pass — one of the birthplaces of American wind power."}},{"type":"Feature","geometry":{"type":"Point","coordinates":[-98.3,36.7]},"properties":{"name":"Traverse Wind Energy Center","tech":"wind","status":"operating","capacityMW":998,"energyMWh":null,"country":"United States","owner":null,"note":"Largest single-phase wind farm in the US."}},{"type":"Feature","geometry":{"type":"Point","coordinates":[-105.6,34.4]},"properties":{"name":"Western Spirit Wind","tech":"wind","status":"operating","capacityMW":1050,"energyMWh":null,"country":"United States","owner":"Pattern Energy","note":null}},{"type":"Feature","geometry":{"type":"Point","coordinates":[-100.53,32.45]},"properties":{"name":"Roscoe Wind Farm","tech":"wind","status":"operating","capacityMW":781,"energyMWh":null,"country":"United States","owner":null,"note":null}},{"type":"Feature","geometry":{"type":"Point","coordinates":[-106,33.9]},"properties":{"name":"SunZia Wind","tech":"wind","status":"construction","capacityMW":3515,"energyMWh":null,"country":"United States","owner":"Pattern Energy","note":"3.5 GW plus a 550-mile HVDC line west — the largest clean-energy infrastructure project in US history."}},{"type":"Feature","geometry":{"type":"Point","coordinates":[20.6,65.35]},"properties":{"name":"Markbygden Wind Farm","tech":"wind","status":"operating","capacityMW":1400,"energyMWh":null,"country":"Sweden","owner":null,"note":"Europe's largest onshore wind complex, near the Arctic Circle."}},{"type":"Feature","geometry":{"type":"Point","coordinates":[10.2,63.9]},"properties":{"name":"Fosen Vind","tech":"wind","status":"operating","capacityMW":1057,"energyMWh":null,"country":"Norway","owner":null,"note":null}},{"type":"Feature","geometry":{"type":"Point","coordinates":[-4.31,55.67]},"properties":{"name":"Whitelee Wind Farm","tech":"wind","status":"operating","capacityMW":539,"energyMWh":null,"country":"United Kingdom","owner":null,"note":"UK's largest onshore wind farm, on moorland outside Glasgow."}},{"type":"Feature","geometry":{"type":"Point","coordinates":[-1.25,60.35]},"properties":{"name":"Viking Wind Farm","tech":"wind","status":"operating","capacityMW":443,"energyMWh":null,"country":"United Kingdom","owner":null,"note":"On Shetland — one of the most productive wind sites anywhere."}},{"type":"Feature","geometry":{"type":"Point","coordinates":[36.82,2.52]},"properties":{"name":"Lake Turkana Wind Power","tech":"wind","status":"operating","capacityMW":310,"energyMWh":null,"country":"Kenya","owner":null,"note":"365 turbines in a natural wind funnel in the Rift Valley — ~15% of Kenya's power."}},{"type":"Feature","geometry":{"type":"Point","coordinates":[-12.9,27.95]},"properties":{"name":"Tarfaya Wind Farm","tech":"wind","status":"operating","capacityMW":301,"energyMWh":null,"country":"Morocco","owner":null,"note":null}},{"type":"Feature","geometry":{"type":"Point","coordinates":[-41.4,-7.8]},"properties":{"name":"Lagoa dos Ventos","tech":"wind","status":"operating","capacityMW":1038,"energyMWh":null,"country":"Brazil","owner":"Enel Green Power","note":null}},{"type":"Feature","geometry":{"type":"Point","coordinates":[151.45,-26.75]},"properties":{"name":"Coopers Gap Wind Farm","tech":"wind","status":"operating","capacityMW":453,"energyMWh":null,"country":"Australia","owner":null,"note":null}},{"type":"Feature","geometry":{"type":"Point","coordinates":[151.1,-28.3]},"properties":{"name":"MacIntyre Wind Farm","tech":"wind","status":"operating","capacityMW":1026,"energyMWh":null,"country":"Australia","owner":null,"note":"One of the largest onshore wind farms in the southern hemisphere."}},{"type":"Feature","geometry":{"type":"Point","coordinates":[143.7,-37.9]},"properties":{"name":"Golden Plains Wind Farm","tech":"wind","status":"construction","capacityMW":1333,"energyMWh":null,"country":"Australia","owner":null,"note":"Victoria's biggest wind project, built in two stages."}},{"type":"Feature","geometry":{"type":"Point","coordinates":[64.2,41.6]},"properties":{"name":"Zarafshan Wind Farm","tech":"wind","status":"operating","capacityMW":500,"energyMWh":null,"country":"Uzbekistan","owner":"Masdar","note":"Central Asia's largest wind farm."}},{"type":"Feature","geometry":{"type":"Point","coordinates":[1.92,53.88]},"properties":{"name":"Hornsea 1","tech":"wind","status":"operating","capacityMW":1218,"energyMWh":null,"country":"United Kingdom","owner":"Ørsted","note":null}},{"type":"Feature","geometry":{"type":"Point","coordinates":[1.72,53.93]},"properties":{"name":"Hornsea 2","tech":"wind","status":"operating","capacityMW":1320,"energyMWh":null,"country":"United Kingdom","owner":"Ørsted","note":null}},{"type":"Feature","geometry":{"type":"Point","coordinates":[2.4,53.85]},"properties":{"name":"Hornsea 3","tech":"wind","status":"construction","capacityMW":2852,"energyMWh":null,"country":"United Kingdom","owner":"Ørsted","note":"Will overtake its siblings as one of the largest offshore farms anywhere."}},{"type":"Feature","geometry":{"type":"Point","coordinates":[2,54.75]},"properties":{"name":"Dogger Bank Wind Farm","tech":"wind","status":"construction","capacityMW":3600,"energyMWh":null,"country":"United Kingdom","owner":"SSE / Equinor","note":"Three phases ~130 km offshore; first power already flowing."}},{"type":"Feature","geometry":{"type":"Point","coordinates":[2.5,55]},"properties":{"name":"Sofia Offshore Wind Farm","tech":"wind","status":"construction","capacityMW":1400,"energyMWh":null,"country":"United Kingdom","owner":"RWE","note":null}},{"type":"Feature","geometry":{"type":"Point","coordinates":[-1.7,56.6]},"properties":{"name":"Seagreen Offshore Wind Farm","tech":"wind","status":"operating","capacityMW":1075,"energyMWh":null,"country":"United Kingdom","owner":null,"note":"Scotland's largest offshore wind farm."}},{"type":"Feature","geometry":{"type":"Point","coordinates":[-3,58.3]},"properties":{"name":"Moray West","tech":"wind","status":"operating","capacityMW":882,"energyMWh":null,"country":"United Kingdom","owner":null,"note":null}},{"type":"Feature","geometry":{"type":"Point","coordinates":[1.5,51.63]},"properties":{"name":"London Array","tech":"wind","status":"operating","capacityMW":630,"energyMWh":null,"country":"United Kingdom","owner":null,"note":null}},{"type":"Feature","geometry":{"type":"Point","coordinates":[-3.6,54.05]},"properties":{"name":"Walney Extension","tech":"wind","status":"operating","capacityMW":659,"energyMWh":null,"country":"United Kingdom","owner":"Ørsted","note":null}},{"type":"Feature","geometry":{"type":"Point","coordinates":[3.05,51.7]},"properties":{"name":"Borssele I–IV","tech":"wind","status":"operating","capacityMW":1503,"energyMWh":null,"country":"Netherlands","owner":null,"note":null}},{"type":"Feature","geometry":{"type":"Point","coordinates":[4,52.2]},"properties":{"name":"Hollandse Kust Zuid","tech":"wind","status":"operating","capacityMW":1520,"energyMWh":null,"country":"Netherlands","owner":"Vattenfall + partners","note":"Built entirely without subsidy — a milestone for offshore wind economics."}},{"type":"Feature","geometry":{"type":"Point","coordinates":[12.95,55.05]},"properties":{"name":"Kriegers Flak","tech":"wind","status":"operating","capacityMW":605,"energyMWh":null,"country":"Denmark","owner":null,"note":null}},{"type":"Feature","geometry":{"type":"Point","coordinates":[17.75,55]},"properties":{"name":"Baltic Power","tech":"wind","status":"construction","capacityMW":1140,"energyMWh":null,"country":"Poland","owner":null,"note":"Poland's first offshore wind farm."}},{"type":"Feature","geometry":{"type":"Point","coordinates":[6,54.3]},"properties":{"name":"He Dreiht","tech":"wind","status":"construction","capacityMW":960,"energyMWh":null,"country":"Germany","owner":"EnBW","note":null}},{"type":"Feature","geometry":{"type":"Point","coordinates":[-2.6,47.13]},"properties":{"name":"Saint-Nazaire Offshore Wind Farm","tech":"wind","status":"operating","capacityMW":480,"energyMWh":null,"country":"France","owner":null,"note":"France's first commercial offshore wind farm."}},{"type":"Feature","geometry":{"type":"Point","coordinates":[111.95,21.35]},"properties":{"name":"Yangjiang Shapa Offshore Wind","tech":"wind","status":"operating","capacityMW":1700,"energyMWh":null,"country":"China","owner":null,"note":"Part of Guangdong's huge offshore build-out."}},{"type":"Feature","geometry":{"type":"Point","coordinates":[119.9,24]},"properties":{"name":"Greater Changhua Offshore Wind","tech":"wind","status":"operating","capacityMW":900,"energyMWh":null,"country":"Taiwan","owner":"Ørsted","note":null}},{"type":"Feature","geometry":{"type":"Point","coordinates":[-70.55,40.95]},"properties":{"name":"Vineyard Wind 1","tech":"wind","status":"operating","capacityMW":806,"energyMWh":null,"country":"United States","owner":null,"note":"The first large-scale offshore wind farm in the US."}},{"type":"Feature","geometry":{"type":"Point","coordinates":[-71.3,41.1]},"properties":{"name":"Revolution Wind","tech":"wind","status":"construction","capacityMW":704,"energyMWh":null,"country":"United States","owner":"Ørsted / Global Infrastructure Partners","note":null}},{"type":"Feature","geometry":{"type":"Point","coordinates":[-75.4,36.85]},"properties":{"name":"Coastal Virginia Offshore Wind","tech":"wind","status":"construction","capacityMW":2587,"energyMWh":null,"country":"United States","owner":"Dominion Energy","note":"176 turbines, 27 miles off Virginia Beach — the largest US offshore project."}},{"type":"Feature","geometry":{"type":"Point","coordinates":[-73.55,40.35]},"properties":{"name":"Empire Wind 1","tech":"wind","status":"construction","capacityMW":816,"energyMWh":null,"country":"United States","owner":"Equinor","note":"Will feed Brooklyn from the New York Bight."}},{"type":"Feature","geometry":{"type":"Point","coordinates":[-121.78,36.8]},"properties":{"name":"Moss Landing Energy Storage","tech":"battery","status":"operating","capacityMW":750,"energyMWh":3000,"country":"United States","owner":"Vistra","note":"A retired gas plant site on Monterey Bay turned into one of the world's largest battery installations."}},{"type":"Feature","geometry":{"type":"Point","coordinates":[-117.95,35.05]},"properties":{"name":"Edwards & Sanborn Solar + Storage","tech":"battery","status":"operating","capacityMW":875,"energyMWh":3287,"country":"United States","owner":null,"note":"Solar + storage across the Mojave; among the largest battery sites in the US."}},{"type":"Feature","geometry":{"type":"Point","coordinates":[-114.9,33.7]},"properties":{"name":"Crimson Energy Storage","tech":"battery","status":"operating","capacityMW":350,"energyMWh":1400,"country":"United States","owner":null,"note":null}},{"type":"Feature","geometry":{"type":"Point","coordinates":[-82.35,27.58]},"properties":{"name":"Manatee Energy Storage Center","tech":"battery","status":"operating","capacityMW":409,"energyMWh":900,"country":"United States","owner":"Florida Power & Light","note":"Charged by an adjacent solar plant."}},{"type":"Feature","geometry":{"type":"Point","coordinates":[151.56,-33.2]},"properties":{"name":"Waratah Super Battery","tech":"battery","status":"operating","capacityMW":850,"energyMWh":1680,"country":"Australia","owner":null,"note":"Built as a giant 'shock absorber' for the Sydney grid."}},{"type":"Feature","geometry":{"type":"Point","coordinates":[144.3,-37.9]},"properties":{"name":"Victorian Big Battery","tech":"battery","status":"operating","capacityMW":300,"energyMWh":450,"country":"Australia","owner":"Neoen","note":null}},{"type":"Feature","geometry":{"type":"Point","coordinates":[138.55,-33.13]},"properties":{"name":"Hornsdale Power Reserve","tech":"battery","status":"operating","capacityMW":150,"energyMWh":194,"country":"Australia","owner":"Neoen","note":"The original 'Tesla big battery' (2017) that kick-started the grid-battery era."}},{"type":"Feature","geometry":{"type":"Point","coordinates":[116.16,-33.36]},"properties":{"name":"Collie Battery","tech":"battery","status":"operating","capacityMW":500,"energyMWh":2000,"country":"Australia","owner":null,"note":"Helping replace the coal plants next door; stages still coming online."}},{"type":"Feature","geometry":{"type":"Point","coordinates":[-2.94,57.54]},"properties":{"name":"Blackhillock Battery","tech":"battery","status":"operating","capacityMW":300,"energyMWh":600,"country":"United Kingdom","owner":"Zenobē","note":"Europe's largest battery, soaking up Scottish wind."}},{"type":"Feature","geometry":{"type":"Point","coordinates":[121.6,38.95]},"properties":{"name":"Dalian Flow Battery","tech":"battery","status":"operating","capacityMW":100,"energyMWh":400,"country":"China","owner":null,"note":"The world's largest vanadium flow battery — energy stored in tanks of liquid electrolyte."}},{"type":"Feature","geometry":{"type":"Point","coordinates":[42.59,19.98]},"properties":{"name":"Bisha Battery Energy Storage","tech":"battery","status":"operating","capacityMW":500,"energyMWh":2000,"country":"Saudi Arabia","owner":null,"note":"One of the largest single-site batteries in the world."}},{"type":"Feature","geometry":{"type":"Point","coordinates":[-69.6,-23.4]},"properties":{"name":"Oasis de Atacama","tech":"battery","status":"construction","capacityMW":1000,"energyMWh":4100,"country":"Chile","owner":"Grenergy","note":"Phased solar + storage targeting ~11 GWh — set to be the world's largest battery."}},{"type":"Feature","geometry":{"type":"Point","coordinates":[-115.47,35.56]},"properties":{"name":"Ivanpah Solar Electric Generating System","tech":"solar","status":"operating","capacityMW":392,"energyMWh":null,"country":"United States","owner":null,"note":"Three CSP towers in the Mojave where 170,000 mirrors focus sunlight to boil water."}},{"type":"Feature","geometry":{"type":"Point","coordinates":[-0.68,44.74]},"properties":{"name":"Cestas Solar Park","tech":"solar","status":"operating","capacityMW":300,"energyMWh":null,"country":"France","owner":null,"note":null}},{"type":"Feature","geometry":{"type":"Point","coordinates":[0.95,51.36]},"properties":{"name":"Cleve Hill Solar Park","tech":"solar","status":"operating","capacityMW":373,"energyMWh":null,"country":"United Kingdom","owner":null,"note":"The UK's largest solar farm, paired with a big battery on the Kent marshes."}},{"type":"Feature","geometry":{"type":"Point","coordinates":[78.28,15.68]},"properties":{"name":"Kurnool Ultra Mega Solar Park","tech":"solar","status":"operating","capacityMW":1000,"energyMWh":null,"country":"India","owner":null,"note":null}},{"type":"Feature","geometry":{"type":"Point","coordinates":[113.3,40.09]},"properties":{"name":"Datong Solar Top Runner Base","tech":"solar","status":"operating","capacityMW":1070,"energyMWh":null,"country":"China","owner":null,"note":"Includes arrays laid out in the shape of giant pandas."}},{"type":"Feature","geometry":{"type":"Point","coordinates":[40.1,29.9]},"properties":{"name":"Sakaka Solar Power Plant","tech":"solar","status":"operating","capacityMW":300,"energyMWh":null,"country":"Saudi Arabia","owner":"ACWA Power","note":null}},{"type":"Feature","geometry":{"type":"Point","coordinates":[32.95,24.48]},"properties":{"name":"Kom Ombo Solar Park","tech":"solar","status":"operating","capacityMW":200,"energyMWh":null,"country":"Egypt","owner":null,"note":null}},{"type":"Feature","geometry":{"type":"Point","coordinates":[-40.9,-7.5]},"properties":{"name":"Nova Olinda Solar Park","tech":"solar","status":"operating","capacityMW":292,"energyMWh":null,"country":"Brazil","owner":null,"note":null}},{"type":"Feature","geometry":{"type":"Point","coordinates":[137.83,-32.42]},"properties":{"name":"Bungala Solar","tech":"solar","status":"operating","capacityMW":275,"energyMWh":null,"country":"Australia","owner":null,"note":null}},{"type":"Feature","geometry":{"type":"Point","coordinates":[94.9,36.4]},"properties":{"name":"Golmud Solar Park","tech":"solar","status":"operating","capacityMW":500,"energyMWh":null,"country":"China","owner":null,"note":null}},{"type":"Feature","geometry":{"type":"Point","coordinates":[28.6,44.6]},"properties":{"name":"Fântânele-Cogealac Wind Farm","tech":"wind","status":"operating","capacityMW":600,"energyMWh":null,"country":"Romania","owner":null,"note":"When completed it was one of the largest onshore wind farms in Europe."}},{"type":"Feature","geometry":{"type":"Point","coordinates":[142,-38.05]},"properties":{"name":"Macarthur Wind Farm","tech":"wind","status":"operating","capacityMW":420,"energyMWh":null,"country":"Australia","owner":null,"note":null}},{"type":"Feature","geometry":{"type":"Point","coordinates":[-80.4,8.5]},"properties":{"name":"Penonomé Wind Farm","tech":"wind","status":"operating","capacityMW":270,"energyMWh":null,"country":"Panama","owner":null,"note":"Central America's largest wind farm."}},{"type":"Feature","geometry":{"type":"Point","coordinates":[-87.3,14]},"properties":{"name":"Cerro de Hula Wind Farm","tech":"wind","status":"operating","capacityMW":126,"energyMWh":null,"country":"Honduras","owner":null,"note":null}},{"type":"Feature","geometry":{"type":"Point","coordinates":[-71.5,-31.9]},"properties":{"name":"El Arrayán Wind Farm","tech":"wind","status":"operating","capacityMW":115,"energyMWh":null,"country":"Chile","owner":null,"note":null}},{"type":"Feature","geometry":{"type":"Point","coordinates":[39.6,13.35]},"properties":{"name":"Ashegoda Wind Farm","tech":"wind","status":"operating","capacityMW":120,"energyMWh":null,"country":"Ethiopia","owner":null,"note":null}},{"type":"Feature","geometry":{"type":"Point","coordinates":[5.96,54.04]},"properties":{"name":"Gemini Wind Farm","tech":"wind","status":"operating","capacityMW":600,"energyMWh":null,"country":"Netherlands","owner":null,"note":"One of the first offshore farms built far from shore, ~85 km out."}},{"type":"Feature","geometry":{"type":"Point","coordinates":[2.5,52.23]},"properties":{"name":"East Anglia ONE","tech":"wind","status":"operating","capacityMW":714,"energyMWh":null,"country":"United Kingdom","owner":"ScottishPower Renewables","note":null}},{"type":"Feature","geometry":{"type":"Point","coordinates":[-3.58,53.45]},"properties":{"name":"Gwynt y Môr","tech":"wind","status":"operating","capacityMW":576,"energyMWh":null,"country":"United Kingdom","owner":null,"note":null}},{"type":"Feature","geometry":{"type":"Point","coordinates":[11.21,56.6]},"properties":{"name":"Anholt Offshore Wind Farm","tech":"wind","status":"operating","capacityMW":400,"energyMWh":null,"country":"Denmark","owner":null,"note":null}},{"type":"Feature","geometry":{"type":"Point","coordinates":[7.75,55.7]},"properties":{"name":"Horns Rev 3","tech":"wind","status":"operating","capacityMW":407,"energyMWh":null,"country":"Denmark","owner":null,"note":null}},{"type":"Feature","geometry":{"type":"Point","coordinates":[14.12,54.78]},"properties":{"name":"Arkona","tech":"wind","status":"operating","capacityMW":385,"energyMWh":null,"country":"Germany","owner":"RWE / Equinor","note":null}},{"type":"Feature","geometry":{"type":"Point","coordinates":[7,54.04]},"properties":{"name":"Gode Wind 1 & 2","tech":"wind","status":"operating","capacityMW":582,"energyMWh":null,"country":"Germany","owner":"Ørsted","note":null}},{"type":"Feature","geometry":{"type":"Point","coordinates":[120.6,24.7]},"properties":{"name":"Formosa 2 Offshore Wind","tech":"wind","status":"operating","capacityMW":376,"energyMWh":null,"country":"Taiwan","owner":null,"note":null}},{"type":"Feature","geometry":{"type":"Point","coordinates":[120.3,24.1]},"properties":{"name":"Hai Long Offshore Wind","tech":"wind","status":"construction","capacityMW":1022,"energyMWh":null,"country":"Taiwan","owner":null,"note":null}},{"type":"Feature","geometry":{"type":"Point","coordinates":[151.52,-33.06]},"properties":{"name":"Eraring Battery","tech":"battery","status":"construction","capacityMW":700,"energyMWh":2800,"country":"Australia","owner":"Origin Energy","note":"Rising on the site of Australia's largest coal plant as it winds down."}},{"type":"Feature","geometry":{"type":"Point","coordinates":[138.55,-34.8]},"properties":{"name":"Torrens Island BESS","tech":"battery","status":"operating","capacityMW":250,"energyMWh":250,"country":"Australia","owner":"AGL","note":null}},{"type":"Feature","geometry":{"type":"Point","coordinates":[-1.95,51.6]},"properties":{"name":"Minety Battery","tech":"battery","status":"operating","capacityMW":150,"energyMWh":300,"country":"United Kingdom","owner":null,"note":null}},{"type":"Feature","geometry":{"type":"Point","coordinates":[-0.42,53.78]},"properties":{"name":"Pillswood Battery","tech":"battery","status":"operating","capacityMW":196,"energyMWh":392,"country":"United Kingdom","owner":"Harmony Energy","note":null}},{"type":"Feature","geometry":{"type":"Point","coordinates":[-158.09,21.34]},"properties":{"name":"Kapolei Energy Storage","tech":"battery","status":"operating","capacityMW":185,"energyMWh":565,"country":"United States","owner":null,"note":"Replaced Oahu's last coal plant with stored solar."}},{"type":"Feature","geometry":{"type":"Point","coordinates":[-97.74,32.35]},"properties":{"name":"Vistra DeCordova Energy Storage","tech":"battery","status":"operating","capacityMW":260,"energyMWh":260,"country":"United States","owner":"Vistra","note":null}},{"type":"Feature","geometry":{"type":"Point","coordinates":[-122.75,38.79]},"properties":{"name":"The Geysers","tech":"geothermal","status":"operating","capacityMW":900,"energyMWh":null,"country":"United States","owner":null,"note":"The world's largest geothermal field — a complex of 20+ plants north of San Francisco."}},{"type":"Feature","geometry":{"type":"Point","coordinates":[-115.24,32.42]},"properties":{"name":"Cerro Prieto Geothermal","tech":"geothermal","status":"operating","capacityMW":570,"energyMWh":null,"country":"Mexico","owner":null,"note":null}},{"type":"Feature","geometry":{"type":"Point","coordinates":[10.87,43.24]},"properties":{"name":"Larderello Geothermal Complex","tech":"geothermal","status":"operating","capacityMW":800,"energyMWh":null,"country":"Italy","owner":null,"note":"Site of the world's first geothermal power station, running since 1913."}},{"type":"Feature","geometry":{"type":"Point","coordinates":[-21.4,64.04]},"properties":{"name":"Hellisheiði Power Station","tech":"geothermal","status":"operating","capacityMW":303,"energyMWh":null,"country":"Iceland","owner":null,"note":"Powers Reykjavík; paired with CarbFix, which mineralizes CO₂ into basalt."}},{"type":"Feature","geometry":{"type":"Point","coordinates":[36.29,-0.9]},"properties":{"name":"Olkaria Geothermal Complex","tech":"geothermal","status":"operating","capacityMW":800,"energyMWh":null,"country":"Kenya","owner":null,"note":"In the Great Rift Valley — geothermal supplies roughly 40% of Kenya's power."}},{"type":"Feature","geometry":{"type":"Point","coordinates":[99,2]},"properties":{"name":"Sarulla Geothermal","tech":"geothermal","status":"operating","capacityMW":330,"energyMWh":null,"country":"Indonesia","owner":null,"note":null}},{"type":"Feature","geometry":{"type":"Point","coordinates":[107.63,-7.2]},"properties":{"name":"Wayang Windu Geothermal","tech":"geothermal","status":"operating","capacityMW":227,"energyMWh":null,"country":"Indonesia","owner":null,"note":null}},{"type":"Feature","geometry":{"type":"Point","coordinates":[121.2,14.13]},"properties":{"name":"Makban Geothermal Complex","tech":"geothermal","status":"operating","capacityMW":458,"energyMWh":null,"country":"Philippines","owner":null,"note":null}},{"type":"Feature","geometry":{"type":"Point","coordinates":[123.68,13.46]},"properties":{"name":"Tiwi Geothermal Complex","tech":"geothermal","status":"operating","capacityMW":289,"energyMWh":null,"country":"Philippines","owner":null,"note":null}},{"type":"Feature","geometry":{"type":"Point","coordinates":[116.6,41.2]},"properties":{"name":"Fengning Pumped Storage","tech":"hydro","status":"operating","capacityMW":3600,"energyMWh":40000,"country":"China","owner":null,"note":"The world's largest pumped-storage power station."}},{"type":"Feature","geometry":{"type":"Point","coordinates":[-79.8,38.2]},"properties":{"name":"Bath County Pumped Storage","tech":"hydro","status":"operating","capacityMW":3003,"energyMWh":24000,"country":"United States","owner":null,"note":"Called 'the world's largest battery' for decades before lithium arrived."}},{"type":"Feature","geometry":{"type":"Point","coordinates":[114.4,23.25]},"properties":{"name":"Huizhou Pumped Storage","tech":"hydro","status":"operating","capacityMW":2448,"energyMWh":null,"country":"China","owner":null,"note":null}},{"type":"Feature","geometry":{"type":"Point","coordinates":[-86.44,43.9]},"properties":{"name":"Ludington Pumped Storage","tech":"hydro","status":"operating","capacityMW":1872,"energyMWh":null,"country":"United States","owner":null,"note":null}},{"type":"Feature","geometry":{"type":"Point","coordinates":[-4.11,53.12]},"properties":{"name":"Dinorwig Power Station","tech":"hydro","status":"operating","capacityMW":1728,"energyMWh":null,"country":"United Kingdom","owner":null,"note":"'Electric Mountain' — hidden inside a Welsh slate mountain, at full power in ~16 seconds."}},{"type":"Feature","geometry":{"type":"Point","coordinates":[119.6,30.44]},"properties":{"name":"Tianhuangping Pumped Storage","tech":"hydro","status":"operating","capacityMW":1836,"energyMWh":null,"country":"China","owner":null,"note":null}},{"type":"Feature","geometry":{"type":"Point","coordinates":[134.83,35.25]},"properties":{"name":"Okutataragi Pumped Storage","tech":"hydro","status":"operating","capacityMW":1932,"energyMWh":null,"country":"Japan","owner":null,"note":null}},{"type":"Feature","geometry":{"type":"Point","coordinates":[-0.95,39.25]},"properties":{"name":"Cortes-La Muela Complex","tech":"hydro","status":"operating","capacityMW":1762,"energyMWh":null,"country":"Spain","owner":null,"note":"One of Europe's largest pumped-storage schemes, above the Júcar river."}},{"type":"Feature","geometry":{"type":"Point","coordinates":[148.4,-35.95]},"properties":{"name":"Snowy 2.0","tech":"hydro","status":"construction","capacityMW":2200,"energyMWh":350000,"country":"Australia","owner":null,"note":"Tunnelling between two existing dams to store ~350 GWh in the Snowy Mountains."}},{"type":"Feature","geometry":{"type":"Point","coordinates":[6.8783,33.3665]},"properties":{"name":"El Oued solar farm","tech":"solar","status":"construction","capacityMW":200,"energyMWh":null,"country":"Algeria","owner":"Sonelgaz SpA [100%]","note":null}},{"type":"Feature","geometry":{"type":"Point","coordinates":[6.7468,35.6076]},"properties":{"name":"Fadel solar farm","tech":"solar","status":"construction","capacityMW":220,"energyMWh":null,"country":"Algeria","owner":null,"note":null}},{"type":"Feature","geometry":{"type":"Point","coordinates":[7.1725,33.2873]},"properties":{"name":"Foulia solar farm","tech":"solar","status":"construction","capacityMW":300,"energyMWh":null,"country":"Algeria","owner":"Sonelgaz SpA","note":null}},{"type":"Feature","geometry":{"type":"Point","coordinates":[-7.1709,26.8911]},"properties":{"name":"Gara Djebilet Mine solar farm","tech":"solar","status":"construction","capacityMW":200,"energyMWh":null,"country":"Algeria","owner":"Sonelgaz SpA","note":null}},{"type":"Feature","geometry":{"type":"Point","coordinates":[2.8329,33.8889]},"properties":{"name":"Laghouat (Özgün İnşaat) solar farm","tech":"solar","status":"construction","capacityMW":362,"energyMWh":null,"country":"Algeria","owner":null,"note":null}},{"type":"Feature","geometry":{"type":"Point","coordinates":[2.918,33.8598]},"properties":{"name":"Laghouat solar farm","tech":"solar","status":"construction","capacityMW":200,"energyMWh":null,"country":"Algeria","owner":"Sonelgaz SpA [100%]","note":null}},{"type":"Feature","geometry":{"type":"Point","coordinates":[4.5077,35.6869]},"properties":{"name":"M'Sila solar farm","tech":"solar","status":"construction","capacityMW":220,"energyMWh":null,"country":"Algeria","owner":"Sonelgaz SpA [100%]","note":null}},{"type":"Feature","geometry":{"type":"Point","coordinates":[5.8055,33.7022]},"properties":{"name":"Tendla solar farm","tech":"solar","status":"construction","capacityMW":200,"energyMWh":null,"country":"Algeria","owner":null,"note":null}},{"type":"Feature","geometry":{"type":"Point","coordinates":[-68.6367,-32.455]},"properties":{"name":"El Quemado solar farm","tech":"solar","status":"operating","capacityMW":200,"energyMWh":null,"country":"Argentina","owner":"Empresa Mendocina de Energía (EMESA); YPF Luz SA [100%]","note":null}},{"type":"Feature","geometry":{"type":"Point","coordinates":[151.0713,-23.8353]},"properties":{"name":"Aldoga solar farm","tech":"solar","status":"construction","capacityMW":380,"energyMWh":null,"country":"Australia","owner":"Acciona SA [100%]","note":null}},{"type":"Feature","geometry":{"type":"Point","coordinates":[146.594,-34.9173]},"properties":{"name":"Avonlie solar farm","tech":"solar","status":"operating","capacityMW":245,"energyMWh":null,"country":"Australia","owner":"Iberdrola SA [100%]","note":null}},{"type":"Feature","geometry":{"type":"Point","coordinates":[150.5083,-26.6848]},"properties":{"name":"Blue Grass Solar","tech":"solar","status":"operating","capacityMW":200,"energyMWh":null,"country":"Australia","owner":"X-Elio [100%]","note":null}},{"type":"Feature","geometry":{"type":"Point","coordinates":[149.3886,-22.8114]},"properties":{"name":"Broadsound solar farm","tech":"solar","status":"construction","capacityMW":385,"energyMWh":null,"country":"Australia","owner":"Iberdrola SA [100%]","note":null}},{"type":"Feature","geometry":{"type":"Point","coordinates":[146.973,-35.6967]},"properties":{"name":"Culcairn solar farm","tech":"solar","status":"operating","capacityMW":350,"energyMWh":null,"country":"Australia","owner":"Neoen SA [100%]","note":null}},{"type":"Feature","geometry":{"type":"Point","coordinates":[150.8819,-27.112]},"properties":{"name":"Darling Downs solar farm","tech":"solar","status":"operating","capacityMW":200,"energyMWh":null,"country":"Australia","owner":"APA Group [100%]","note":null}},{"type":"Feature","geometry":{"type":"Point","coordinates":[146.0529,-34.6472]},"properties":{"name":"Darlington Point Solar","tech":"solar","status":"operating","capacityMW":275,"energyMWh":null,"country":"Australia","owner":"Edify Energy; Octopus Investments Ltd [100%]","note":null}},{"type":"Feature","geometry":{"type":"Point","coordinates":[150.5819,-26.932]},"properties":{"name":"Edenvale Solar Park","tech":"solar","status":"operating","capacityMW":204,"energyMWh":null,"country":"Australia","owner":"Sojitz Corp [50%]; ENEOS Corp [50%]","note":null}},{"type":"Feature","geometry":{"type":"Point","coordinates":[146.9117,-35.9289]},"properties":{"name":"Glenellen solar farm","tech":"solar","status":"operating","capacityMW":260,"energyMWh":null,"country":"Australia","owner":"Global Power Generation","note":null}},{"type":"Feature","geometry":{"type":"Point","coordinates":[145.9535,-36.4167]},"properties":{"name":"Goorambat East solar farm","tech":"solar","status":"construction","capacityMW":250,"energyMWh":null,"country":"Australia","owner":"Engie ANZ","note":null}},{"type":"Feature","geometry":{"type":"Point","coordinates":[150.1072,-32.2821]},"properties":{"name":"Goulburn River solar farm","tech":"solar","status":"construction","capacityMW":550,"energyMWh":null,"country":"Australia","owner":"Lightsource BP [100%]","note":null}},{"type":"Feature","geometry":{"type":"Point","coordinates":[142.3002,-35.0205]},"properties":{"name":"Kiamal Solar","tech":"solar","status":"operating","capacityMW":200,"energyMWh":null,"country":"Australia","owner":"Total Eren SA [100%]","note":null}},{"type":"Feature","geometry":{"type":"Point","coordinates":[143.508,-34.7755]},"properties":{"name":"Limondale solar farm","tech":"solar","status":"operating","capacityMW":349,"energyMWh":null,"country":"Australia","owner":"RWE AG [100%]","note":null}},{"type":"Feature","geometry":{"type":"Point","coordinates":[151.6001,-30.6381]},"properties":{"name":"New England solar farm","tech":"solar","status":"operating","capacityMW":400,"energyMWh":null,"country":"Australia","owner":"UPC/AC Renewables Australia [100%]","note":null}},{"type":"Feature","geometry":{"type":"Point","coordinates":[149.5814,-32.2468]},"properties":{"name":"Stubbo solar farm","tech":"solar","status":"construction","capacityMW":400,"energyMWh":null,"country":"Australia","owner":"ACEN Australia [100%]","note":null}},{"type":"Feature","geometry":{"type":"Point","coordinates":[143.4899,-34.8076]},"properties":{"name":"Sunraysia solar farm","tech":"solar","status":"operating","capacityMW":200,"energyMWh":null,"country":"Australia","owner":"John Laing Group PLC [90%]; Maoneng Group [9%]","note":null}},{"type":"Feature","geometry":{"type":"Point","coordinates":[146.9601,-35.748]},"properties":{"name":"Walla Walla solar farm","tech":"solar","status":"operating","capacityMW":300,"energyMWh":null,"country":"Australia","owner":"Fotowatio Renewable Ventures (FRV) BV [100%]","note":null}},{"type":"Feature","geometry":{"type":"Point","coordinates":[148.96,-32.4917]},"properties":{"name":"Wellington North solar farm","tech":"solar","status":"operating","capacityMW":425,"energyMWh":null,"country":"Australia","owner":"BJCE Australia","note":null}},{"type":"Feature","geometry":{"type":"Point","coordinates":[148.9549,-32.5143]},"properties":{"name":"Wellington solar farm","tech":"solar","status":"operating","capacityMW":200,"energyMWh":null,"country":"Australia","owner":"BJCE Australia","note":null}},{"type":"Feature","geometry":{"type":"Point","coordinates":[150.6776,-26.9578]},"properties":{"name":"Western Downs (Neoen) solar farm","tech":"solar","status":"operating","capacityMW":460,"energyMWh":null,"country":"Australia","owner":"Neoen SA [100%]","note":null}},{"type":"Feature","geometry":{"type":"Point","coordinates":[149.936,-32.4173]},"properties":{"name":"Wollar solar farm","tech":"solar","status":"operating","capacityMW":280,"energyMWh":null,"country":"Australia","owner":"BJEI Australia","note":null}},{"type":"Feature","geometry":{"type":"Point","coordinates":[48.3955,39.4864]},"properties":{"name":"Bilasuvar solar farm","tech":"solar","status":"construction","capacityMW":445,"energyMWh":null,"country":"Azerbaijan","owner":"Abu Dhabi Future Energy Co [100%]","note":null}},{"type":"Feature","geometry":{"type":"Point","coordinates":[49.3406,40.0453]},"properties":{"name":"Garadagh Solar PV Plant","tech":"solar","status":"operating","capacityMW":230,"energyMWh":null,"country":"Azerbaijan","owner":"Masdar Clean Energy [100%]","note":null}},{"type":"Feature","geometry":{"type":"Point","coordinates":[89.5417,25.3288]},"properties":{"name":"Gaibandha Beximco solar farm","tech":"solar","status":"operating","capacityMW":200,"energyMWh":null,"country":"Bangladesh","owner":"Bangladesh Export Import Co Ltd [100%]","note":null}},{"type":"Feature","geometry":{"type":"Point","coordinates":[89.5174,25.5662]},"properties":{"name":"Sundarganj solar farm","tech":"solar","status":"operating","capacityMW":275,"energyMWh":null,"country":"Bangladesh","owner":"Jiangsu Zhongtian Technology Co Ltd [20%]; Beximco Power Co Ltd [80%]","note":null}},{"type":"Feature","geometry":{"type":"Point","coordinates":[24.2661,42.3363]},"properties":{"name":"Apriltsi solar farm","tech":"solar","status":"operating","capacityMW":250,"energyMWh":null,"country":"Bulgaria","owner":null,"note":null}},{"type":"Feature","geometry":{"type":"Point","coordinates":[25.9832,42.1374]},"properties":{"name":"Galabovo solar farm","tech":"solar","status":"operating","capacityMW":201,"energyMWh":null,"country":"Bulgaria","owner":"Sunterra Re [100%]","note":null}},{"type":"Feature","geometry":{"type":"Point","coordinates":[27.2545,44.1004]},"properties":{"name":"St George solar farm","tech":"solar","status":"construction","capacityMW":229,"energyMWh":null,"country":"Bulgaria","owner":"Rezolv Energy [100%]","note":null}},{"type":"Feature","geometry":{"type":"Point","coordinates":[-112.711,50.2887]},"properties":{"name":"Travers Solar","tech":"solar","status":"operating","capacityMW":465,"energyMWh":null,"country":"Canada","owner":"Axium Infrastructure Inc [100%]","note":null}},{"type":"Feature","geometry":{"type":"Point","coordinates":[-68.585,-24.0091]},"properties":{"name":"Andes Solar Park","tech":"solar","status":"operating","capacityMW":211,"energyMWh":null,"country":"Chile","owner":"AES Corp [100%]","note":null}},{"type":"Feature","geometry":{"type":"Point","coordinates":[-70.1853,-27.865]},"properties":{"name":"Atacama Desert (Pacific Hydro) Solar Park","tech":"solar","status":"operating","capacityMW":293,"energyMWh":null,"country":"Chile","owner":"Pacific Hydro [100%]","note":null}},{"type":"Feature","geometry":{"type":"Point","coordinates":[-69.5963,-22.3587]},"properties":{"name":"CEME 1 solar farm","tech":"solar","status":"operating","capacityMW":480,"energyMWh":null,"country":"Chile","owner":"EDF Energies Nouvelles [100%]","note":null}},{"type":"Feature","geometry":{"type":"Point","coordinates":[-70.4979,-27.1561]},"properties":{"name":"Campos Del Sol Photovoltaic Solar Plant","tech":"solar","status":"operating","capacityMW":393,"energyMWh":null,"country":"Chile","owner":"Enel Chile SA [100%]","note":null}},{"type":"Feature","geometry":{"type":"Point","coordinates":[-70.9113,-29.1126]},"properties":{"name":"El Romero PV solar farm","tech":"solar","status":"operating","capacityMW":246,"energyMWh":null,"country":"Chile","owner":"Acciona SA [100%]","note":null}},{"type":"Feature","geometry":{"type":"Point","coordinates":[-68.784,-23.2517]},"properties":{"name":"Gabriela Photovoltaic Solar Park","tech":"solar","status":"construction","capacityMW":269,"energyMWh":null,"country":"Chile","owner":"Grenergy [100%]","note":null}},{"type":"Feature","geometry":{"type":"Point","coordinates":[-70.7268,-33.457]},"properties":{"name":"Gran Teno solar farm","tech":"solar","status":"operating","capacityMW":240,"energyMWh":null,"country":"Chile","owner":"Grenergy Renovables [100%]","note":null}},{"type":"Feature","geometry":{"type":"Point","coordinates":[-70.6086,-26.3431]},"properties":{"name":"Guanchoi solar farm","tech":"solar","status":"operating","capacityMW":398,"energyMWh":null,"country":"Chile","owner":"Enel SpA","note":null}},{"type":"Feature","geometry":{"type":"Point","coordinates":[-68.9543,-22.8601]},"properties":{"name":"Sierra Gorda solar farm","tech":"solar","status":"operating","capacityMW":205,"energyMWh":null,"country":"Chile","owner":"Enel Chile SA [100%]","note":null}},{"type":"Feature","geometry":{"type":"Point","coordinates":[-69.6616,-22.3445]},"properties":{"name":"Sol Del Desierto Solar Plant","tech":"solar","status":"operating","capacityMW":244,"energyMWh":null,"country":"Chile","owner":"Actis LLP [100%]","note":null}},{"type":"Feature","geometry":{"type":"Point","coordinates":[-70.7979,-28.1971]},"properties":{"name":"Sol de Vallenar solar farm","tech":"solar","status":"construction","capacityMW":308,"energyMWh":null,"country":"Chile","owner":"Cox Energy SAB de CV [100%]","note":null}},{"type":"Feature","geometry":{"type":"Point","coordinates":[-69.5485,-22.2624]},"properties":{"name":"Tocopilla solar farm","tech":"solar","status":"operating","capacityMW":227,"energyMWh":null,"country":"Chile","owner":"Metlen Energy & Metals SA","note":null}},{"type":"Feature","geometry":{"type":"Point","coordinates":[-69.6201,-20.253]},"properties":{"name":"Víctor Jara solar farm","tech":"solar","status":"construction","capacityMW":230,"energyMWh":null,"country":"Chile","owner":"ContourGlobal Ltd [100%]","note":null}},{"type":"Feature","geometry":{"type":"Point","coordinates":[116.9478,30.4801]},"properties":{"name":"Anhui Anqing Wanhe Farm solar farm","tech":"solar","status":"operating","capacityMW":200,"energyMWh":null,"country":"China","owner":"CLP Asset Management Co Ltd [40%]; Shenwan Energy Co Ltd [60%]","note":null}},{"type":"Feature","geometry":{"type":"Point","coordinates":[117.8971,33.2967]},"properties":{"name":"Anhui Bengbu Wuhe (Yaoyang) solar farm","tech":"solar","status":"operating","capacityMW":200,"energyMWh":null,"country":"China","owner":"Bengbu Linyang New Energy Technology Co Ltd [100%]","note":null}},{"type":"Feature","geometry":{"type":"Point","coordinates":[117.5309,30.7902]},"properties":{"name":"Anhui Congyang Tanggouzhen solar farm","tech":"solar","status":"operating","capacityMW":200,"energyMWh":null,"country":"China","owner":"Shenyang Jiyang New Energy Co Ltd [49%]; Sungrow Renewables Development Co Ltd [51%]","note":null}},{"type":"Feature","geometry":{"type":"Point","coordinates":[118.7247,31.4438]},"properties":{"name":"Anhui Dangtu Dalonghen Shuangtanhu solar farm","tech":"solar","status":"operating","capacityMW":260,"energyMWh":null,"country":"China","owner":"CGN New Energy Investment (Shenzhen) Co Ltd [100%]","note":null}},{"type":"Feature","geometry":{"type":"Point","coordinates":[117.0178,33.0889]},"properties":{"name":"Anhui Fengtai Dingji solar farm","tech":"solar","status":"operating","capacityMW":200,"energyMWh":null,"country":"China","owner":"Huaihe Energy Holding Group Co Ltd [100%]","note":null}},{"type":"Feature","geometry":{"type":"Point","coordinates":[116.2892,32.7838]},"properties":{"name":"Anhui Fuyang Nanbu Wind/Solar/Storage Complex Gucheng Floating solar power plant","tech":"solar","status":"operating","capacityMW":250,"energyMWh":null,"country":"China","owner":null,"note":null}},{"type":"Feature","geometry":{"type":"Point","coordinates":[117.1437,32.5525]},"properties":{"name":"Anhui Huainan Kongdian Fishery solar farm","tech":"solar","status":"operating","capacityMW":200,"energyMWh":null,"country":"China","owner":null,"note":null}},{"type":"Feature","geometry":{"type":"Point","coordinates":[118.2899,29.8313]},"properties":{"name":"Anhui Huizhou Huiyun solar farm","tech":"solar","status":"construction","capacityMW":200,"energyMWh":null,"country":"China","owner":"CGN New Energy (Huangshan) Co Ltd","note":null}},{"type":"Feature","geometry":{"type":"Point","coordinates":[116.6198,30.2082]},"properties":{"name":"Anhui Wangjiang Liangwan solar farm","tech":"solar","status":"construction","capacityMW":200,"energyMWh":null,"country":"China","owner":"CGN New Energy Investment (Shenzhen) Co Ltd [100%]","note":null}},{"type":"Feature","geometry":{"type":"Point","coordinates":[117.7355,33.1763]},"properties":{"name":"Anhui Wuhe Linyang solar farm","tech":"solar","status":"operating","capacityMW":200,"energyMWh":null,"country":"China","owner":"Jiangsu Linyang Energy Co Ltd [100%]","note":null}},{"type":"Feature","geometry":{"type":"Point","coordinates":[106.2119,29.2069]},"properties":{"name":"Chongqing Jiangjin Longhua solar farm","tech":"solar","status":"construction","capacityMW":300,"energyMWh":null,"country":"China","owner":null,"note":null}},{"type":"Feature","geometry":{"type":"Point","coordinates":[105.878,29.8401]},"properties":{"name":"Chongqing Tongliang Pingtan solar farm","tech":"solar","status":"construction","capacityMW":250,"energyMWh":null,"country":"China","owner":"Chongqing Energy Investment Group Co Ltd; Chongqing Longyu Urban and Rural Development Co Ltd","note":null}},{"type":"Feature","geometry":{"type":"Point","coordinates":[105.825,30.166]},"properties":{"name":"Chongqing Tongnan Rooftop Distributed solar farm","tech":"solar","status":"construction","capacityMW":300,"energyMWh":null,"country":"China","owner":null,"note":null}},{"type":"Feature","geometry":{"type":"Point","coordinates":[110.088,31.0691]},"properties":{"name":"Chongqing Wushan Liangping Chengguang solar farm","tech":"solar","status":"operating","capacityMW":200,"energyMWh":null,"country":"China","owner":"China Three Gorges New Energy (Group) Co Ltd [100%]","note":null}},{"type":"Feature","geometry":{"type":"Point","coordinates":[111.9963,27.697]},"properties":{"name":"Datang Huayin Loudi Ecological Governance (Lengshuijiang) solar project","tech":"solar","status":"operating","capacityMW":200,"energyMWh":null,"country":"China","owner":"Datang Huayin Power Co Ltd [100%]","note":null}},{"type":"Feature","geometry":{"type":"Point","coordinates":[111.7649,27.7657]},"properties":{"name":"Datang Huayin Loudi Ecological Governance (Lianyuan) solar project","tech":"solar","status":"operating","capacityMW":300,"energyMWh":null,"country":"China","owner":"Datang Huayin Electric Power Co Ltd","note":null}},{"type":"Feature","geometry":{"type":"Point","coordinates":[111.5376,27.8699]},"properties":{"name":"Datang Huayin Loudi Ecological Governance (Xinhua) solar project","tech":"solar","status":"operating","capacityMW":200,"energyMWh":null,"country":"China","owner":"Datang Huayin Power Co Ltd [100%]","note":null}},{"type":"Feature","geometry":{"type":"Point","coordinates":[120.2838,27.0533]},"properties":{"name":"Fujian Fuding Ningde Nuclear Power Plant Thermal Discharge Zone Offshore solar farm","tech":"solar","status":"construction","capacityMW":200,"energyMWh":null,"country":"China","owner":null,"note":null}},{"type":"Feature","geometry":{"type":"Point","coordinates":[119.3371,25.6101]},"properties":{"name":"Fujian Fuqing Baigeshan solar farm","tech":"solar","status":"construction","capacityMW":500,"energyMWh":null,"country":"China","owner":null,"note":null}},{"type":"Feature","geometry":{"type":"Point","coordinates":[119.1379,25.4257]},"properties":{"name":"Fujian Hanjiang  Xinghua Bay (Jinghong) Fishery solar farm","tech":"solar","status":"construction","capacityMW":300,"energyMWh":null,"country":"China","owner":null,"note":null}},{"type":"Feature","geometry":{"type":"Point","coordinates":[119.815,26.4218]},"properties":{"name":"Fujian Lianjiang  Kemen Economic Development Zone Flood Detension Basin Offshore  solar farm","tech":"solar","status":"construction","capacityMW":200,"energyMWh":null,"country":"China","owner":"China Huadian Corp Ltd","note":null}},{"type":"Feature","geometry":{"type":"Point","coordinates":[117.7177,24.0353]},"properties":{"name":"Fujian Zhangpu Jiuzhen Fishery solar farm","tech":"solar","status":"operating","capacityMW":300,"energyMWh":null,"country":"China","owner":"CECEP Solar Energy Co Ltd [100%]","note":null}},{"type":"Feature","geometry":{"type":"Point","coordinates":[94.623,38.927]},"properties":{"name":"Gansu Akesai (Huidong New Energy) solar farm","tech":"solar","status":"operating","capacityMW":640,"energyMWh":null,"country":"China","owner":null,"note":null}},{"type":"Feature","geometry":{"type":"Point","coordinates":[107.358,36.171]},"properties":{"name":"Gansu Changqing Oilfield wind and solar farm solar portion","tech":"solar","status":"construction","capacityMW":300,"energyMWh":null,"country":"China","owner":"PetroChina Changqing Oilfield Branch Co [100%]","note":null}},{"type":"Feature","geometry":{"type":"Point","coordinates":[103.398,35.874]},"properties":{"name":"Gansu Dongxiang Tonglingxiang Dashancun solar farm","tech":"solar","status":"operating","capacityMW":200,"energyMWh":null,"country":"China","owner":"China Power Construction Group Hubei Engineering New Energy Co [100%]","note":null}},{"type":"Feature","geometry":{"type":"Point","coordinates":[94.441,40.176]},"properties":{"name":"Gansu Dunhuang (Shazhou Power) solar farm","tech":"solar","status":"operating","capacityMW":260,"energyMWh":null,"country":"China","owner":"Dunhuang Shazhou Wind Power Generation Co Ltd","note":null}},{"type":"Feature","geometry":{"type":"Point","coordinates":[100.6765,38.8442]},"properties":{"name":"Gansu Ganzhou Nantan solar power plant","tech":"solar","status":"operating","capacityMW":300,"energyMWh":null,"country":"China","owner":"China Gezhouba Group Equipment Industry Co Ltd [5%]; China Power Engineering Consulting Group Co Ltd [85%]; China Energy Construction Group Gansu Province Power Design Institute Co Ltd [10%]","note":null}},{"type":"Feature","geometry":{"type":"Point","coordinates":[99.783,39.284]},"properties":{"name":"Gansu Gaotai (Gansu Power Investment) Renewables Base solar farm","tech":"solar","status":"construction","capacityMW":400,"energyMWh":null,"country":"China","owner":"Gansu Power Investment Group Co [100%]","note":null}},{"type":"Feature","geometry":{"type":"Point","coordinates":[99.601,39.311]},"properties":{"name":"Gansu Gaotai Beibutan (Gansu Transportation) Renewables Base solar farm","tech":"solar","status":"construction","capacityMW":400,"energyMWh":null,"country":"China","owner":"Gansu Transportation Investment Management Co Ltd [100%]","note":null}},{"type":"Feature","geometry":{"type":"Point","coordinates":[99.7156,39.279]},"properties":{"name":"Gansu Gaotai Gaoyazitan solar farm","tech":"solar","status":"operating","capacityMW":200,"energyMWh":null,"country":"China","owner":"Hangzhou Yetai New Energy Development Co Ltd [100%]","note":null}},{"type":"Feature","geometry":{"type":"Point","coordinates":[95.479,40.621]},"properties":{"name":"Gansu Guazhou (Ouhao) solar farm","tech":"solar","status":"operating","capacityMW":200,"energyMWh":null,"country":"China","owner":null,"note":null}},{"type":"Feature","geometry":{"type":"Point","coordinates":[95.511,40.933]},"properties":{"name":"Gansu Guazhou Ganhekou (Gansu Power Investment) solar farm","tech":"solar","status":"operating","capacityMW":200,"energyMWh":null,"country":"China","owner":"Gansu Power Investment Group Co Ltd [100%]","note":null}},{"type":"Feature","geometry":{"type":"Point","coordinates":[95.249,41.551]},"properties":{"name":"Gansu Guazhou Solar Thermal/Photovoltaic/Wind Complex solar portion","tech":"solar","status":"operating","capacityMW":200,"energyMWh":null,"country":"China","owner":"Beijing Nengmo Weiye New Energy Technology Co Ltd [51%]; China Three Gorges New Energy Co Ltd [49%]","note":null}},{"type":"Feature","geometry":{"type":"Point","coordinates":[103.2446,37.6394]},"properties":{"name":"Gansu Gulang Wuwei \"Solid-State\" Desert Control Demonstration solar power plant","tech":"solar","status":"operating","capacityMW":300,"energyMWh":null,"country":"China","owner":"Gansu Yitao New Energy Co Ltd [100%]","note":null}},{"type":"Feature","geometry":{"type":"Point","coordinates":[106.618,36.461]},"properties":{"name":"Gansu Huanxian Maojing (Huadian) solar farm","tech":"solar","status":"operating","capacityMW":300,"energyMWh":null,"country":"China","owner":null,"note":null}},{"type":"Feature","geometry":{"type":"Point","coordinates":[98.095,39.746]},"properties":{"name":"Gansu Jiayuguan (Suotong Clean Energy) solar farm","tech":"solar","status":"operating","capacityMW":770,"energyMWh":null,"country":"China","owner":"Zhongyuan Xinhua Water Conservancy and Hydropower Investment Co Ltd; Gansu Wind and Solar Power Engineering Co Ltd; Suotong Development Co Ltd","note":null}},{"type":"Feature","geometry":{"type":"Point","coordinates":[98.091,36.761]},"properties":{"name":"Gansu Jiayuguan 14th Five-Year Plan Second Group solar farms","tech":"solar","status":"construction","capacityMW":200,"energyMWh":null,"country":"China","owner":"Guozong Green Energy Digital Technology Co Ltd; Gansu Jiatang Aluminum Co Ltd","note":null}},{"type":"Feature","geometry":{"type":"Point","coordinates":[102.282,38.266]},"properties":{"name":"Gansu Jinchang Heqingtan (China Nuclear) solar power plant","tech":"solar","status":"operating","capacityMW":200,"energyMWh":null,"country":"China","owner":"Xinhua Water Resources and Power Generation Co Ltd [100%]","note":null}},{"type":"Feature","geometry":{"type":"Point","coordinates":[102.3421,38.4659]},"properties":{"name":"Gansu Jinchuan Dongdatan solar farm","tech":"solar","status":"operating","capacityMW":300,"energyMWh":null,"country":"China","owner":"Jinchuan Group Co Ltd [100%]","note":null}},{"type":"Feature","geometry":{"type":"Point","coordinates":[102.3484,38.4961]},"properties":{"name":"Gansu Jinchuan Shuangwan (Huaneng) solar farm","tech":"solar","status":"operating","capacityMW":200,"energyMWh":null,"country":"China","owner":"Huaneng Jinchang Photovoltaic Power Generation Co Ltd","note":null}},{"type":"Feature","geometry":{"type":"Point","coordinates":[102.127,38.574]},"properties":{"name":"Gansu Jinchuan Xipo (Qineng Wansheng) solar farm","tech":"solar","status":"construction","capacityMW":450,"energyMWh":null,"country":"China","owner":"Qineng Wansheng New Energy (Gansu Jinchang) Co Ltd","note":null}},{"type":"Feature","geometry":{"type":"Point","coordinates":[104.2692,36.8011]},"properties":{"name":"Gansu Jingtai \"Source/Grid/Load/Storage\" Wind/Solar Complex solar portion","tech":"solar","status":"construction","capacityMW":500,"energyMWh":null,"country":"China","owner":null,"note":null}},{"type":"Feature","geometry":{"type":"Point","coordinates":[104.324,37.205]},"properties":{"name":"Gansu Jingtai Shandong  Power Export solar farms","tech":"solar","status":"operating","capacityMW":200,"energyMWh":null,"country":"China","owner":null,"note":null}},{"type":"Feature","geometry":{"type":"Point","coordinates":[103.968,37.451]},"properties":{"name":"Gansu Jingtai Shandong Energy Power Export solar farms","tech":"solar","status":"operating","capacityMW":200,"energyMWh":null,"country":"China","owner":"Shandong Energy Group Jingtai Lusheng New Energy Co Ltd","note":null}},{"type":"Feature","geometry":{"type":"Point","coordinates":[104.573,36.611]},"properties":{"name":"Gansu Jingyuan Source-Grid-Load-Storage solar farm","tech":"solar","status":"construction","capacityMW":400,"energyMWh":null,"country":"China","owner":"Gansu Zhongrui Aluminum Co Ltd","note":null}},{"type":"Feature","geometry":{"type":"Point","coordinates":[98.984,39.965]},"properties":{"name":"Gansu Jinta (China Power Construction) solar farm","tech":"solar","status":"operating","capacityMW":300,"energyMWh":null,"country":"China","owner":"Power Construction Corporation of China Ltd [100%]","note":null}},{"type":"Feature","geometry":{"type":"Point","coordinates":[98.9029,39.9865]},"properties":{"name":"Gansu Jinta Baishuiquan Jiuquan Steel solar power plant","tech":"solar","status":"operating","capacityMW":200,"energyMWh":null,"country":"China","owner":"Jiuquan Iron and Steel (Group) Co Ltd [100%]","note":null}},{"type":"Feature","geometry":{"type":"Point","coordinates":[98.971,39.9849]},"properties":{"name":"Gansu Jinta Haoming solar power plant","tech":"solar","status":"operating","capacityMW":200,"energyMWh":null,"country":"China","owner":"Ouhao New Energy Power (Gansu) Co Ltd [100%]","note":null}},{"type":"Feature","geometry":{"type":"Point","coordinates":[98.971,39.9849]},"properties":{"name":"Gansu Jinta Huisheng solar farm","tech":"solar","status":"operating","capacityMW":500,"energyMWh":null,"country":"China","owner":"China Nuclear Huineng Co Ltd [100%]","note":null}},{"type":"Feature","geometry":{"type":"Point","coordinates":[98.971,39.9849]},"properties":{"name":"Gansu Jinta Photovoltaic Base Jinko solar power plant","tech":"solar","status":"operating","capacityMW":200,"energyMWh":null,"country":"China","owner":"Jiuquan Jinko Power Co Ltd [100%]","note":null}},{"type":"Feature","geometry":{"type":"Point","coordinates":[98.9029,39.9865]},"properties":{"name":"Gansu Jinta Zhongguang solar power plant","tech":"solar","status":"operating","capacityMW":600,"energyMWh":null,"country":"China","owner":"Jinta Kesheng Solar Power Generation Co Ltd [100%]","note":null}},{"type":"Feature","geometry":{"type":"Point","coordinates":[103.5371,36.8172]},"properties":{"name":"Gansu Lanzhou New Area (Longyuan) solar farm","tech":"solar","status":"construction","capacityMW":300,"energyMWh":null,"country":"China","owner":"China Longyuan Power Group Corp Ltd","note":null}},{"type":"Feature","geometry":{"type":"Point","coordinates":[103.657,36.765]},"properties":{"name":"Gansu Lanzhou New District (Guangdong Hydro) solar farm","tech":"solar","status":"construction","capacityMW":300,"energyMWh":null,"country":"China","owner":"Lanzhou Guangdong Hydro Energy Co Ltd","note":null}},{"type":"Feature","geometry":{"type":"Point","coordinates":[102.828,38.135]},"properties":{"name":"Gansu Liangzhou Desert Control (China Power Construction) solar farm","tech":"solar","status":"operating","capacityMW":200,"energyMWh":null,"country":"China","owner":"China Power Construction Group Gansu Energy Investment Co Ltd [100%]","note":null}},{"type":"Feature","geometry":{"type":"Point","coordinates":[100.375,39.167]},"properties":{"name":"Gansu Linze Banqiao Beitan 200 MW Desert Control solar power plant","tech":"solar","status":"construction","capacityMW":200,"energyMWh":null,"country":"China","owner":"Changzhou Heye New Energy Co Ltd [100%]","note":null}},{"type":"Feature","geometry":{"type":"Point","coordinates":[100.2858,39.2778]},"properties":{"name":"Gansu Linze Banqiao Beitan 500 MW Desert Control solar power plant","tech":"solar","status":"operating","capacityMW":200,"energyMWh":null,"country":"China","owner":"Longyuan Power Group CO LTD Gansu branch company [100%]","note":null}},{"type":"Feature","geometry":{"type":"Point","coordinates":[102.113,34.223]},"properties":{"name":"Gansu Luqu  Liqiaru pastoral solar farm","tech":"solar","status":"construction","capacityMW":300,"energyMWh":null,"country":"China","owner":"Luqu County Hangtai New Energy Development Co Ltd","note":null}},{"type":"Feature","geometry":{"type":"Point","coordinates":[100.718,38.716]},"properties":{"name":"Gansu Minle Sanduntan (State Power Investment) solar farm","tech":"solar","status":"operating","capacityMW":200,"energyMWh":null,"country":"China","owner":"Chunhe (Guangdong) Modern Agriculture Technology Co Ltd; China Power International Development Co Ltd","note":null}},{"type":"Feature","geometry":{"type":"Point","coordinates":[102.461,38.653]},"properties":{"name":"Gansu Minqin (Gansu Energy and Chemical) solar farm","tech":"solar","status":"construction","capacityMW":500,"energyMWh":null,"country":"China","owner":null,"note":null}},{"type":"Feature","geometry":{"type":"Point","coordinates":[102.441,38.949]},"properties":{"name":"Gansu Minqin Hongshagang solar farm","tech":"solar","status":"operating","capacityMW":200,"energyMWh":null,"country":"China","owner":"China Energy Investment Group Gansu Power Co Ltd [100%]","note":null}},{"type":"Feature","geometry":{"type":"Point","coordinates":[104.656,36.862]},"properties":{"name":"Gansu Pingchuan (Shandong Energy) Power Export solar farms","tech":"solar","status":"operating","capacityMW":200,"energyMWh":null,"country":"China","owner":"Shandong Energy Group Jingtai Shenglu New Energy","note":null}},{"type":"Feature","geometry":{"type":"Point","coordinates":[104.877,36.743]},"properties":{"name":"Gansu Pingchuan Mined-Out Area Ecological Restoration solar farm","tech":"solar","status":"construction","capacityMW":200,"energyMWh":null,"country":"China","owner":"Baiyin Huisheng New Energy Co Ltd","note":null}},{"type":"Feature","geometry":{"type":"Point","coordinates":[93.5166,39.8991]},"properties":{"name":"Gansu Province Aksai Chint solar farm","tech":"solar","status":"operating","capacityMW":200,"energyMWh":null,"country":"China","owner":"Zhejiang Chint New Energy Development Co. Ltd. [100%]","note":null}},{"type":"Feature","geometry":{"type":"Point","coordinates":[103.1271,37.7575]},"properties":{"name":"Gansu Province Gulang Malutan Grid-Connected solar farm","tech":"solar","status":"operating","capacityMW":350,"energyMWh":null,"country":"China","owner":"Zha Zhengfa [100%]","note":null}},{"type":"Feature","geometry":{"type":"Point","coordinates":[102.3274,38.5035]},"properties":{"name":"Gansu Province Jinchuan Dongdatan Jintai Grid-Connected solar farm","tech":"solar","status":"operating","capacityMW":200,"energyMWh":null,"country":"China","owner":"Jinchuan Machinery Manufacturing Co Ltd [40%]; Jinko Power Co Ltd [15%]; Zhejiang Chint New Energy Development Co Ltd [32%]; Baye Construction Group Co Ltd [12%]","note":null}},{"type":"Feature","geometry":{"type":"Point","coordinates":[107.543,35.708]},"properties":{"name":"Gansu Qingyang (Gansu Energy) Data Center Green Power Supply solar farm","tech":"solar","status":"construction","capacityMW":250,"energyMWh":null,"country":"China","owner":"Gansu Jiuquan Huineng Windpower Development Co Ltd","note":null}},{"type":"Feature","geometry":{"type":"Point","coordinates":[100.829,38.8249]},"properties":{"name":"Gansu Shandan Dongletan Photovoltaic Base China Power Construction solar power plant","tech":"solar","status":"operating","capacityMW":300,"energyMWh":null,"country":"China","owner":"China Power Construction Group Gansu Gansu Energy Investment Co Ltd; Shandan County Shanhui New Energy Co Ltd","note":null}},{"type":"Feature","geometry":{"type":"Point","coordinates":[99.543,39.477]},"properties":{"name":"Gansu Sunan Liugu Duntan Huaneng solar power plant","tech":"solar","status":"operating","capacityMW":200,"energyMWh":null,"country":"China","owner":"Huaneng Gansu New Energy Development Co Ltd [100%]","note":null}},{"type":"Feature","geometry":{"type":"Point","coordinates":[98.587,39.585]},"properties":{"name":"Gansu Suzhou Dongruntan (China Power Construction) solar farm","tech":"solar","status":"operating","capacityMW":200,"energyMWh":null,"country":"China","owner":"Gansu Branch of China Power Construction New Energy Group Co Ltd","note":null}},{"type":"Feature","geometry":{"type":"Point","coordinates":[102.831,38.144]},"properties":{"name":"Gansu Tengger Desert Renewables Base for Local Use solar farms","tech":"solar","status":"construction","capacityMW":3000,"energyMWh":null,"country":"China","owner":"China Resources Power New Energy Investment Co Ltd [49%]; Gansu Power Investment and Energy Development Co Ltd [51%]","note":null}},{"type":"Feature","geometry":{"type":"Point","coordinates":[102.6386,37.9275]},"properties":{"name":"Gansu Wuwei (Yili) solar farm","tech":"solar","status":"operating","capacityMW":500,"energyMWh":null,"country":"China","owner":"Gansu Yitao New Energy Co Ltd [100%]","note":null}},{"type":"Feature","geometry":{"type":"Point","coordinates":[103.103,37.739]},"properties":{"name":"Gansu Wuwei Gulang Jiayu solar power plant","tech":"solar","status":"operating","capacityMW":300,"energyMWh":null,"country":"China","owner":"Gansu Jiake New Energy Development Co Ltd [100%]","note":null}},{"type":"Feature","geometry":{"type":"Point","coordinates":[103.1811,38.0547]},"properties":{"name":"Gansu Wuwei Liangzhou \"Three-Dimensional\" Desert Control Demonstration solar power plant","tech":"solar","status":"operating","capacityMW":200,"energyMWh":null,"country":"China","owner":"Gansu Yitao New Energy Co Ltd [100%]","note":null}},{"type":"Feature","geometry":{"type":"Point","coordinates":[102.7338,38.1434]},"properties":{"name":"Gansu Wuwei Liangzhou Jiuduntan (Huadian) Desert Control solar power plant","tech":"solar","status":"operating","capacityMW":200,"energyMWh":null,"country":"China","owner":"Huadian New Energy Group Corp Ltd","note":null}},{"type":"Feature","geometry":{"type":"Point","coordinates":[101.858,38.104]},"properties":{"name":"Gansu Wuwei Liangzhou Jiuduntan (Three Gorges) Desert Control solar power plant","tech":"solar","status":"operating","capacityMW":200,"energyMWh":null,"country":"China","owner":"China Three Gorges New Energy (Group) Co Ltd [100%]","note":null}},{"type":"Feature","geometry":{"type":"Point","coordinates":[102.7338,38.1434]},"properties":{"name":"Gansu Wuwei Liangzhou Jiuduntan (Zhejiang Zhengtai) Desert Control solar power plant","tech":"solar","status":"operating","capacityMW":200,"energyMWh":null,"country":"China","owner":"Hangzhou Miantai New Energy Development Co Ltd [100%]","note":null}},{"type":"Feature","geometry":{"type":"Point","coordinates":[102.4668,38.944]},"properties":{"name":"Gansu Wuwei Minqin (China Energy Construction) Desert Control solar power plant","tech":"solar","status":"operating","capacityMW":200,"energyMWh":null,"country":"China","owner":"State Energy Investment Group Gansu Power Co Ltd [100%]","note":null}},{"type":"Feature","geometry":{"type":"Point","coordinates":[102.053,38.411]},"properties":{"name":"Gansu Yongchang (China Nuclear) solar farm","tech":"solar","status":"operating","capacityMW":300,"energyMWh":null,"country":"China","owner":"China Nuclear Huineng Co Ltd [100%]","note":null}},{"type":"Feature","geometry":{"type":"Point","coordinates":[102.2907,38.1694]},"properties":{"name":"Gansu Yongchang Heqingtan (China Academy of Sciences) solar farm","tech":"solar","status":"operating","capacityMW":300,"energyMWh":null,"country":"China","owner":"China Academy of Sciences Energy Technology Co Ltd [100%]","note":null}},{"type":"Feature","geometry":{"type":"Point","coordinates":[102.064,38.406]},"properties":{"name":"Gansu Yongchang Heqingtan (Gansu Power Investment) solar farm","tech":"solar","status":"operating","capacityMW":300,"energyMWh":null,"country":"China","owner":"Gansu Power Investment Group Co Ltd [100%]","note":null}},{"type":"Feature","geometry":{"type":"Point","coordinates":[103.539,36.653]},"properties":{"name":"Gansu Yongdeng (China Resources) Pastoral solar farm","tech":"solar","status":"operating","capacityMW":300,"energyMWh":null,"country":"China","owner":null,"note":null}},{"type":"Feature","geometry":{"type":"Point","coordinates":[103.2769,36.0759]},"properties":{"name":"Gansu Yongjing Yanguoxia solar farm","tech":"solar","status":"operating","capacityMW":260,"energyMWh":null,"country":"China","owner":"Gansu Liujiaxia Haobo New Energy CO LTD Co Ltd","note":null}},{"type":"Feature","geometry":{"type":"Point","coordinates":[97.772,40.225]},"properties":{"name":"Gansu Yumen (China Nuclear Xin'ao) solar and wind complex with storage","tech":"solar","status":"operating","capacityMW":400,"energyMWh":null,"country":"China","owner":"China Nuclear Group Yumen Xin'ao New Energy Co Ltd","note":null}},{"type":"Feature","geometry":{"type":"Point","coordinates":[97.906,39.766]},"properties":{"name":"Gansu Yumen 300 MW (PetroChina) solar farm","tech":"solar","status":"operating","capacityMW":300,"energyMWh":null,"country":"China","owner":"PetroChina Yumen Oilfield Branch Co [100%]","note":null}},{"type":"Feature","geometry":{"type":"Point","coordinates":[97.906,39.766]},"properties":{"name":"Gansu Yumen Dongzhen 200 MW (PetroChina) solar farm","tech":"solar","status":"operating","capacityMW":200,"energyMWh":null,"country":"China","owner":"PetroChina Yumen Oilfield Branch Co [100%]","note":null}},{"type":"Feature","geometry":{"type":"Point","coordinates":[97.9237,39.8153]},"properties":{"name":"Gansu Yumen East (PetroChina) solar power plant","tech":"solar","status":"operating","capacityMW":200,"energyMWh":null,"country":"China","owner":"PetroChina Co Ltd [100%]","note":null}},{"type":"Feature","geometry":{"type":"Point","coordinates":[104.1111,35.8469]},"properties":{"name":"Gansu Yuzhong Shengyang solar farm","tech":"solar","status":"construction","capacityMW":200,"energyMWh":null,"country":"China","owner":"Horgos Fanya Yuanhua New Energy Co. Ltd. [100%]","note":null}},{"type":"Feature","geometry":{"type":"Point","coordinates":[114.4775,23.3806]},"properties":{"name":"Guangdong Boluo Yangcun solar farm","tech":"solar","status":"operating","capacityMW":400,"energyMWh":null,"country":"China","owner":"Guangdong Energy Group Co Ltd [100%]","note":null}},{"type":"Feature","geometry":{"type":"Point","coordinates":[116.5383,23.2112]},"properties":{"name":"Guangdong Chaonan Fishery solar farm","tech":"solar","status":"operating","capacityMW":400,"energyMWh":null,"country":"China","owner":"Guangzhou Hengyun New Energy Co Ltd [100%]","note":null}},{"type":"Feature","geometry":{"type":"Point","coordinates":[111.9696,23.2869]},"properties":{"name":"Guangdong Deqing Fengcunzhen (Guangdong Yudean) solar farm","tech":"solar","status":"construction","capacityMW":200,"energyMWh":null,"country":"China","owner":"Guangdong Energy Group Co Ltd [100%]","note":null}},{"type":"Feature","geometry":{"type":"Point","coordinates":[113.6745,23.8737]},"properties":{"name":"Guangdong Fogang Shuitou (CNNC) solar farm","tech":"solar","status":"operating","capacityMW":200,"energyMWh":null,"country":"China","owner":"Fogang Shuitou Construction and Development Co Ltd [10%]; China Nuclear Huineng Co Ltd [90%]","note":null}},{"type":"Feature","geometry":{"type":"Point","coordinates":[110.7725,21.8231]},"properties":{"name":"Guangdong Gaozhou Fishery(Luneng) solar farm","tech":"solar","status":"construction","capacityMW":200,"energyMWh":null,"country":"China","owner":null,"note":null}},{"type":"Feature","geometry":{"type":"Point","coordinates":[110.8073,21.8383]},"properties":{"name":"Guangdong Gaozhou Nantangzhen Integrated solar farm","tech":"solar","status":"construction","capacityMW":200,"energyMWh":null,"country":"China","owner":"Suzhou Xinfu Energy Technology Co Ltd [100%]","note":null}},{"type":"Feature","geometry":{"type":"Point","coordinates":[112.4353,23.47]},"properties":{"name":"Guangdong Guangning Binheng Agriculture solar farm","tech":"solar","status":"construction","capacityMW":200,"energyMWh":null,"country":"China","owner":"China Nuclear Exchange Energy Co Ltd [100%]","note":null}},{"type":"Feature","geometry":{"type":"Point","coordinates":[115.4248,22.9173]},"properties":{"name":"Guangdong Haifeng Ketangzhen Pulongcun solar farm","tech":"solar","status":"operating","capacityMW":200,"energyMWh":null,"country":"China","owner":"China Nuclear Huineng Co Ltd [80%]; Guangdong Sailan New Energy Co Ltd [20%]","note":null}},{"type":"Feature","geometry":{"type":"Point","coordinates":[113.0767,23.3874]},"properties":{"name":"Guangdong Huadu Chini Fishery solar farm","tech":"solar","status":"operating","capacityMW":220,"energyMWh":null,"country":"China","owner":"China Huaneng Group Co Ltd [100%]","note":null}},{"type":"Feature","geometry":{"type":"Point","coordinates":[111.9846,24.0578]},"properties":{"name":"Guangdong Huaiji Guangbo New Energy Agriculture solar farm","tech":"solar","status":"construction","capacityMW":200,"energyMWh":null,"country":"China","owner":"Huaiji Zhongbo Nengto New Energy Co Ltd [100%]","note":null}},{"type":"Feature","geometry":{"type":"Point","coordinates":[112.1867,23.922]},"properties":{"name":"Guangdong Huaiji Liangcun solar farm","tech":"solar","status":"operating","capacityMW":200,"energyMWh":null,"country":"China","owner":"Huadian New Energy Group Co Ltd [100%]","note":null}},{"type":"Feature","geometry":{"type":"Point","coordinates":[114.536,23.1825]},"properties":{"name":"Guangdong Huicheng Ruhuzhen (Guangdong Yudean) solar farm","tech":"solar","status":"operating","capacityMW":200,"energyMWh":null,"country":"China","owner":"Guangdong Energy Group Co Ltd [100%]","note":null}},{"type":"Feature","geometry":{"type":"Point","coordinates":[114.9627,23.0499]},"properties":{"name":"Guangdong Huidong Duozhuzhen solar farm","tech":"solar","status":"operating","capacityMW":200,"energyMWh":null,"country":"China","owner":"Guangdong Sailan New Energy Co Ltd [100%]","note":null}},{"type":"Feature","geometry":{"type":"Point","coordinates":[116.084,22.975]},"properties":{"name":"Guangdong Huilai Kuitan Farm Integrated solar farm","tech":"solar","status":"operating","capacityMW":500,"energyMWh":null,"country":"China","owner":"Guangdong Energy Group Co Ltd [100%]","note":null}},{"type":"Feature","geometry":{"type":"Point","coordinates":[111.7283,21.8969]},"properties":{"name":"Guangdong Jiangcheng Hongshiyue Farm solar farm","tech":"solar","status":"operating","capacityMW":300,"energyMWh":null,"country":"China","owner":"Hengfeng Guangsan Electric Power Co Ltd [100%]","note":null}},{"type":"Feature","geometry":{"type":"Point","coordinates":[113.3819,22.1615]},"properties":{"name":"Guangdong Jinwan Doumen Fishery solar farm","tech":"solar","status":"construction","capacityMW":290,"energyMWh":null,"country":"China","owner":null,"note":null}},{"type":"Feature","geometry":{"type":"Point","coordinates":[113.4008,22.1416]},"properties":{"name":"Guangdong Jinwan Hezhou South Fishery solar farm","tech":"solar","status":"construction","capacityMW":580,"energyMWh":null,"country":"China","owner":"Zhuhai Huafa Group Co Ltd [100%]","note":null}},{"type":"Feature","geometry":{"type":"Point","coordinates":[113.3355,22.0355]},"properties":{"name":"Guangdong Jinwan Sanzaoyu Yulin Village solar farm","tech":"solar","status":"operating","capacityMW":200,"energyMWh":null,"country":"China","owner":"Guangdong Wind Power Generation Co Ltd [100%]","note":null}},{"type":"Feature","geometry":{"type":"Point","coordinates":[110.1481,21.6568]},"properties":{"name":"Guangdong Lianjiang Cheban (Xinchuang) Fishery solar farm","tech":"solar","status":"construction","capacityMW":200,"energyMWh":null,"country":"China","owner":"Xinchuang New Energy (Wuhu) Co Ltd [100%]","note":null}},{"type":"Feature","geometry":{"type":"Point","coordinates":[110.438,21.5228]},"properties":{"name":"Guangdong Lianjiang Powei Agriculture solar farm","tech":"solar","status":"operating","capacityMW":200,"energyMWh":null,"country":"China","owner":null,"note":null}},{"type":"Feature","geometry":{"type":"Point","coordinates":[109.9154,21.4544]},"properties":{"name":"Guangdong Lianjiang Yingzai Fishery solar farm","tech":"solar","status":"construction","capacityMW":200,"energyMWh":null,"country":"China","owner":null,"note":null}},{"type":"Feature","geometry":{"type":"Point","coordinates":[112.3627,25.0221]},"properties":{"name":"Guangdong Lianzhou Dalubianzhen (Hongrisheng) solar farm","tech":"solar","status":"construction","capacityMW":200,"energyMWh":null,"country":"China","owner":"Shenzhen Hongrisheng New Energy Technology Co Ltd [100%]","note":null}},{"type":"Feature","geometry":{"type":"Point","coordinates":[112.4988,24.9133]},"properties":{"name":"Guangdong Lianzhou Xijiangzhen/Longpingzhen/Jiubeizhen solar farm","tech":"solar","status":"operating","capacityMW":210,"energyMWh":null,"country":"China","owner":"Lianzhou Feiman New Energy Co Ltd; Guangdong Jinyuan New Energy Co Ltd","note":null}},{"type":"Feature","geometry":{"type":"Point","coordinates":[111.4168,22.7208]},"properties":{"name":"Guangdong Luoding Lishaozhen/Lianzhouzhen solar farm","tech":"solar","status":"operating","capacityMW":500,"energyMWh":null,"country":"China","owner":"Zhanjiang Sailan New Energy Co Ltd [100%]","note":null}},{"type":"Feature","geometry":{"type":"Point","coordinates":[114.3068,25.1207]},"properties":{"name":"Guangdong Nanxiong (Huadian) Roof Distributed solar farm","tech":"solar","status":"construction","capacityMW":200,"energyMWh":null,"country":"China","owner":"Huadian Power International Co Ltd [100%]","note":null}},{"type":"Feature","geometry":{"type":"Point","coordinates":[115.9101,24.6606]},"properties":{"name":"Guangdong Pingyuan Renjuzhen (Guangdong Yudean) solar farm","tech":"solar","status":"operating","capacityMW":400,"energyMWh":null,"country":"China","owner":"Guangdong Energy Group Co Ltd [100%]","note":null}},{"type":"Feature","geometry":{"type":"Point","coordinates":[112.583,24.96]},"properties":{"name":"Guangdong Province Qingyuan Lianzhou Xingzi Agriculture and Light Complementary solar farm","tech":"solar","status":"operating","capacityMW":200,"energyMWh":null,"country":"China","owner":"Guangzhou Development Assets Management Co Ltd [10%]; Guangzhou Development Group Incorporated [90%]","note":null}},{"type":"Feature","geometry":{"type":"Point","coordinates":[112.549,21.765]},"properties":{"name":"Guangdong Province Taishan Haiyanzhen Fishing and Light Complementary solar farm","tech":"solar","status":"operating","capacityMW":200,"energyMWh":null,"country":"China","owner":"Guangzhou Hengyun Enterprises Holdings Ltd [60%]; China Energy Engineering Group Guangdong Electric Power Design Institute Co Ltd [40%]","note":null}},{"type":"Feature","geometry":{"type":"Point","coordinates":[115.743,24.192]},"properties":{"name":"Guangdong Province Xingning Yangxing Agriculture and Light Complementary solar farm","tech":"solar","status":"operating","capacityMW":200,"energyMWh":null,"country":"China","owner":"Hefei Huaigui New Energy Investment Co Ltd [30%]; State Power Investment Corporation Guizhou Jinyuan Weining Energy Co Ltd [70%]","note":null}},{"type":"Feature","geometry":{"type":"Point","coordinates":[111.521,21.755]},"properties":{"name":"Guangdong Province Yangxi County Zhilong State Farm solar farm","tech":"solar","status":"operating","capacityMW":200,"energyMWh":null,"country":"China","owner":"Guangdong Electric Power Development Co [100%]","note":null}},{"type":"Feature","geometry":{"type":"Point","coordinates":[112.8644,23.6132]},"properties":{"name":"Guangdong Qingxin (Yanglong) Fishery solar farm","tech":"solar","status":"construction","capacityMW":200,"energyMWh":null,"country":"China","owner":"Hefei Long'an New Energy Investment Co Ltd [100%]","note":null}},{"type":"Feature","geometry":{"type":"Point","coordinates":[112.7725,24.1236]},"properties":{"name":"Guangdong Qingxin Agriculture solar farm","tech":"solar","status":"construction","capacityMW":200,"energyMWh":null,"country":"China","owner":null,"note":null}},{"type":"Feature","geometry":{"type":"Point","coordinates":[112.936,23.6184]},"properties":{"name":"Guangdong Qingxin Runyang Fishery solar farm","tech":"solar","status":"operating","capacityMW":200,"energyMWh":null,"country":"China","owner":"China Resources Power New Energy Investment Co Ltd [100%]","note":null}},{"type":"Feature","geometry":{"type":"Point","coordinates":[112.8589,23.5061]},"properties":{"name":"Guangdong Sanshui District Nanshan solar farm","tech":"solar","status":"operating","capacityMW":300,"energyMWh":null,"country":"China","owner":"Guangdong Electric Power Development Co Ltd [100%]","note":null}},{"type":"Feature","geometry":{"type":"Point","coordinates":[113.5294,24.5454]},"properties":{"name":"Guangdong Shaoguan Zhangshi (Huadian) solar farm","tech":"solar","status":"operating","capacityMW":203,"energyMWh":null,"country":"China","owner":"China Huadian Corp Ltd [100%]","note":null}},{"type":"Feature","geometry":{"type":"Point","coordinates":[112.7557,23.4969]},"properties":{"name":"Guangdong Sihui Huajing Fishery solar farm","tech":"solar","status":"construction","capacityMW":200,"energyMWh":null,"country":"China","owner":"Huadian New Energy Group Co Ltd [100%]","note":null}},{"type":"Feature","geometry":{"type":"Point","coordinates":[112.7051,23.3684]},"properties":{"name":"Guangdong Sihui Hualong Fishery solar farm","tech":"solar","status":"construction","capacityMW":200,"energyMWh":null,"country":"China","owner":null,"note":null}},{"type":"Feature","geometry":{"type":"Point","coordinates":[112.6911,23.4314]},"properties":{"name":"Guangdong Sihui Longfu Fishery solar farm","tech":"solar","status":"construction","capacityMW":200,"energyMWh":null,"country":"China","owner":null,"note":null}},{"type":"Feature","geometry":{"type":"Point","coordinates":[112.6575,23.3989]},"properties":{"name":"Guangdong Sihui Xiamao Fishery solar farm","tech":"solar","status":"operating","capacityMW":200,"energyMWh":null,"country":"China","owner":null,"note":null}},{"type":"Feature","geometry":{"type":"Point","coordinates":[112.7002,23.4792]},"properties":{"name":"Guangdong Sihui Xiamao Longwan solar farm","tech":"solar","status":"operating","capacityMW":300,"energyMWh":null,"country":"China","owner":null,"note":null}},{"type":"Feature","geometry":{"type":"Point","coordinates":[109.7685,21.1258]},"properties":{"name":"Guangdong Suixi Lemin solar farm","tech":"solar","status":"construction","capacityMW":200,"energyMWh":null,"country":"China","owner":null,"note":null}},{"type":"Feature","geometry":{"type":"Point","coordinates":[112.4498,21.9249]},"properties":{"name":"Guangdong Taishan Fishing and Light Complementary solar farm","tech":"solar","status":"operating","capacityMW":300,"energyMWh":null,"country":"China","owner":"Guangzhou Development New Energy Co Ltd [100%]","note":null}},{"type":"Feature","geometry":{"type":"Point","coordinates":[112.7129,22.0638]},"properties":{"name":"Guangdong Taishan Haiyan Huaqiao Farm solar farm","tech":"solar","status":"operating","capacityMW":300,"energyMWh":null,"country":"China","owner":"Guangdong Yide New Energy Development Co. Ltd. [10%]; China Energy Construction Group Guangdong Electric Power Design and Research Institute Co. Ltd. [35%]; Guangzhou Hengyun Enterprise Group Co Ltd [55%]","note":null}},{"type":"Feature","geometry":{"type":"Point","coordinates":[110.4617,20.6556]},"properties":{"name":"Guangdong Xuwen Xinliaozhen Fishery solar farm","tech":"solar","status":"construction","capacityMW":400,"energyMWh":null,"country":"China","owner":null,"note":null}},{"type":"Feature","geometry":{"type":"Point","coordinates":[111.9143,22.5135]},"properties":{"name":"Guangdong Yangchun Wenhui solar farm","tech":"solar","status":"operating","capacityMW":300,"energyMWh":null,"country":"China","owner":null,"note":null}},{"type":"Feature","geometry":{"type":"Point","coordinates":[113.1983,23.1358]},"properties":{"name":"Guangdong Yangjiang (China Energy Construction) Agricultural solar power plant","tech":"solar","status":"operating","capacityMW":350,"energyMWh":null,"country":"China","owner":"China Energy Construction Group Investment Co Ltd [100%]","note":null}},{"type":"Feature","geometry":{"type":"Point","coordinates":[112.588,24.6978]},"properties":{"name":"Guangdong Yangshan Xiaojiangzhen (China Nuclear) solar farm","tech":"solar","status":"operating","capacityMW":300,"energyMWh":null,"country":"China","owner":"China Nuclear Huineng Co Ltd [100%]","note":null}},{"type":"Feature","geometry":{"type":"Point","coordinates":[110.1683,20.331]},"properties":{"name":"Guangdong Youhao Wuyi Farm solar project","tech":"solar","status":"operating","capacityMW":300,"energyMWh":null,"country":"China","owner":"Guangdong Energy Group Co Ltd [100%]","note":null}},{"type":"Feature","geometry":{"type":"Point","coordinates":[111.4239,23.2556]},"properties":{"name":"Guangdong Yunan (Huaneng) solar farm","tech":"solar","status":"construction","capacityMW":200,"energyMWh":null,"country":"China","owner":null,"note":null}},{"type":"Feature","geometry":{"type":"Point","coordinates":[111.6966,22.8719]},"properties":{"name":"Guangdong Yunfu Yunan Runhe solar farm","tech":"solar","status":"construction","capacityMW":300,"energyMWh":null,"country":"China","owner":"China Resources Power New Energy Investment Co Ltd [100%]","note":null}},{"type":"Feature","geometry":{"type":"Point","coordinates":[107.9014,22.7045]},"properties":{"name":"Guangxi Chongzuo 280 MW (China Energy Investment) solar farm","tech":"solar","status":"construction","capacityMW":230,"energyMWh":null,"country":"China","owner":"China Power Engineering Consultants Group Co Ltd [100%]","note":null}},{"type":"Feature","geometry":{"type":"Point","coordinates":[106.6158,23.3293]},"properties":{"name":"Guangxi Debao Rural Revitalization solar farm","tech":"solar","status":"construction","capacityMW":244,"energyMWh":null,"country":"China","owner":"China Power Construction Group Co Ltd","note":null}},{"type":"Feature","geometry":{"type":"Point","coordinates":[107.6839,22.2974]},"properties":{"name":"Guangxi Fusui Nanbu solar power plant","tech":"solar","status":"construction","capacityMW":321,"energyMWh":null,"country":"China","owner":"China Power Engineering Advisory Group Co Ltd [100%]","note":null}},{"type":"Feature","geometry":{"type":"Point","coordinates":[109.4445,23.1346]},"properties":{"name":"Guangxi Guigang Qintang District Northern No.1 Region solar farm","tech":"solar","status":"operating","capacityMW":350,"energyMWh":null,"country":"China","owner":"China Energy Construction Chongzuo Development Investment Co Ltd [100%]","note":null}},{"type":"Feature","geometry":{"type":"Point","coordinates":[109.8415,23.291]},"properties":{"name":"Guangxi Guiping Shilong Fisheries solar farm","tech":"solar","status":"construction","capacityMW":300,"energyMWh":null,"country":"China","owner":"State Power Investment Group Aluminum and Electricity Investment LTD Green Energy Co [100%]","note":null}},{"type":"Feature","geometry":{"type":"Point","coordinates":[109.1444,22.6061]},"properties":{"name":"Guangxi Hengxian Gaoshan (Longyuan) Fishery and Storage solar farm","tech":"solar","status":"construction","capacityMW":300,"energyMWh":null,"country":"China","owner":"Longyuan Power Group Corp Ltd [100%]","note":null}},{"type":"Feature","geometry":{"type":"Point","coordinates":[109.531,22.677]},"properties":{"name":"Guangxi Hengxian Tiantangling (Longyuan) Fishery solar farm","tech":"solar","status":"construction","capacityMW":488,"energyMWh":null,"country":"China","owner":"Longyuan Power Group Corp Ltd [100%]","note":null}},{"type":"Feature","geometry":{"type":"Point","coordinates":[109.1017,21.6672]},"properties":{"name":"Guangxi Hepu Baisha (Huaneng) solar farm","tech":"solar","status":"construction","capacityMW":200,"energyMWh":null,"country":"China","owner":"China Huaneng Group Co Ltd [100%]","note":null}},{"type":"Feature","geometry":{"type":"Point","coordinates":[109.001,21.621]},"properties":{"name":"Guangxi Hepu Xinyi Acquatic solar power plant","tech":"solar","status":"operating","capacityMW":300,"energyMWh":null,"country":"China","owner":"Xinchuang New Energy (Wuhu) Co Ltd [100%]","note":null}},{"type":"Feature","geometry":{"type":"Point","coordinates":[108.258,25.3965]},"properties":{"name":"Guangxi Huanjiang Xunlexiang (Huadian) Agriculture solar farm","tech":"solar","status":"operating","capacityMW":300,"energyMWh":null,"country":"China","owner":"Fujian Huadian Furui Energy Development Co Ltd [100%]","note":null}},{"type":"Feature","geometry":{"type":"Point","coordinates":[107.4597,22.5571]},"properties":{"name":"Guangxi Jiangzhou Jiangnan solar farm","tech":"solar","status":"operating","capacityMW":204,"energyMWh":null,"country":"China","owner":"China Energy Engineering Corp Ltd [100%]","note":null}},{"type":"Feature","geometry":{"type":"Point","coordinates":[109.2645,22.3619]},"properties":{"name":"Guangxi Lingshan Rooftop solar project","tech":"solar","status":"construction","capacityMW":250,"energyMWh":null,"country":"China","owner":"China Energy Engineering Corp Ltd [100%]","note":null}},{"type":"Feature","geometry":{"type":"Point","coordinates":[110.2681,22.1838]},"properties":{"name":"Guangxi Luchuan County Rooftop solar project","tech":"solar","status":"construction","capacityMW":400,"energyMWh":null,"country":"China","owner":null,"note":null}},{"type":"Feature","geometry":{"type":"Point","coordinates":[109.746,24.4759]},"properties":{"name":"Guangxi Luzhai Roof Distributed solar farm","tech":"solar","status":"construction","capacityMW":200,"energyMWh":null,"country":"China","owner":"Guodian Guangxi Electric Power Co Ltd [100%]","note":null}},{"type":"Feature","geometry":{"type":"Point","coordinates":[107.0676,22.1368]},"properties":{"name":"Guangxi Ningming Roof Distributed solar farm","tech":"solar","status":"construction","capacityMW":333,"energyMWh":null,"country":"China","owner":null,"note":null}},{"type":"Feature","geometry":{"type":"Point","coordinates":[108.6382,22.1107]},"properties":{"name":"Guangxi Qinbei Distributed solar farm","tech":"solar","status":"construction","capacityMW":245,"energyMWh":null,"country":"China","owner":null,"note":null}},{"type":"Feature","geometry":{"type":"Point","coordinates":[108.7705,21.8063]},"properties":{"name":"Guangxi Qinnan Dongchangzhen (Minhai) solar farm","tech":"solar","status":"operating","capacityMW":300,"energyMWh":null,"country":"China","owner":"China Three Gorges New Energy (Group) Co Ltd [100%]","note":null}},{"type":"Feature","geometry":{"type":"Point","coordinates":[108.8406,21.7696]},"properties":{"name":"Guangxi Qinnan Dongchangzhen (Xunneng) solar farm","tech":"solar","status":"construction","capacityMW":800,"energyMWh":null,"country":"China","owner":"Qinzhou Guanyang Wind Power Generation Co Ltd [100%]","note":null}},{"type":"Feature","geometry":{"type":"Point","coordinates":[108.795,21.639]},"properties":{"name":"Guangxi Qinnan Xiniujiaozhen (Xin'ao) solar farm","tech":"solar","status":"operating","capacityMW":300,"energyMWh":null,"country":"China","owner":"State Power Investment Corporation Guizhou Jinyuan Weining Energy Co Ltd [30%]; Suzhou Xiexin New Energy Investment Co Ltd [40%]; Guangxi Jinyuan Southern New Energy Co Ltd [30%]","note":null}},{"type":"Feature","geometry":{"type":"Point","coordinates":[108.6051,22.394]},"properties":{"name":"Guangxi Qinzhou Great Wall (Jingneng) solar farm","tech":"solar","status":"construction","capacityMW":850,"energyMWh":null,"country":"China","owner":"Beijing Jingneng Clean Energy Power Co Ltd [100%]","note":null}},{"type":"Feature","geometry":{"type":"Point","coordinates":[107.79,22.0049]},"properties":{"name":"Guangxi Shangsi Hualanzhen (Guangzhou Development) solar farm","tech":"solar","status":"construction","capacityMW":300,"energyMWh":null,"country":"China","owner":"Guangzhou Development Assets Management Co Ltd [10%]; Guangzhou Development Group Inc [90%]","note":null}},{"type":"Feature","geometry":{"type":"Point","coordinates":[108.0134,22.2131]},"properties":{"name":"Guangxi Shangsi Naqin (Guangzhou Development) solar farm","tech":"solar","status":"operating","capacityMW":200,"energyMWh":null,"country":"China","owner":"Guangzhou Development Assets Management Co Ltd [10%]; Guangzhou Development Group Inc [90%]","note":null}},{"type":"Feature","geometry":{"type":"Point","coordinates":[106.973,25.0629]},"properties":{"name":"Guangxi Tian'e Xiangyang Quanping solar farm","tech":"solar","status":"construction","capacityMW":200,"energyMWh":null,"country":"China","owner":null,"note":null}},{"type":"Feature","geometry":{"type":"Point","coordinates":[108.2497,23.2716]},